City,Lat,Lng,Max Temp,Humidity,Cloudiness,Wind Speed,Country,Date
Paredon,16.0333,-93.8667,77.41,85.0,100.0,10.18,MX,1627638811.0
Gunjur,13.2019,-16.7339,80.67,83.0,75.0,9.22,GM,1627638811.0
Kapaa,22.0752,-159.319,75.11,59.0,96.0,1.01,US,1627638812.0
Woodward,36.4337,-99.3904,74.73,83.0,1.0,0.0,US,1627638812.0
Port Elizabeth,-33.918,25.5701,68.09,67.0,0.0,6.91,ZA,1627638801.0
Dhidhdhoo,6.8833,73.1,83.1,70.0,92.0,10.36,MV,1627638812.0
Amarwāra,22.3,79.1667,71.94,90.0,100.0,11.05,IN,1627638812.0
Busselton,-33.65,115.3333,48.04,66.0,92.0,16.6,AU,1627638812.0
Tucumã,-0.1833,-50.05,74.48,91.0,71.0,3.56,BR,1627638812.0
San Juan,-31.5375,-68.5364,44.42,36.0,0.0,5.14,AR,1627638812.0
Vaini,-21.2,-175.2,71.76,100.0,75.0,6.91,TO,1627638812.0
Bonavista,48.6499,-53.1147,62.11,75.0,36.0,13.6,CA,1627638813.0
Kulu,39.0951,33.0799,85.23,18.0,0.0,14.29,TR,1627638813.0
Bambous Virieux,-20.3428,57.7575,75.45,60.0,75.0,16.11,MU,1627638813.0
Vila Franca do Campo,37.7167,-25.4333,72.01,84.0,57.0,6.51,PT,1627638813.0
Hobart,-42.8794,147.3294,55.26,61.0,75.0,3.0,AU,1627638813.0
Albany,42.6001,-73.9662,64.67,94.0,44.0,3.0,US,1627638813.0
Hithadhoo,-0.6,73.0833,82.69,71.0,24.0,4.09,MV,1627638766.0
Isangel,-19.55,169.2667,71.29,72.0,3.0,8.68,VU,1627638813.0
Chicama,-7.8447,-79.1469,63.68,92.0,54.0,5.03,PE,1627638813.0
Punta Arenas,-53.15,-70.9167,33.91,93.0,20.0,16.11,CL,1627638813.0
Pangnirtung,66.1451,-65.7125,51.33,73.0,23.0,1.45,CA,1627638813.0
Rikitea,-23.1203,-134.9692,70.95,70.0,0.0,3.58,PF,1627638814.0
Port Alfred,-33.5906,26.891,65.46,51.0,70.0,2.3,ZA,1627638814.0
Rio Grande,-32.035,-52.0986,41.63,83.0,4.0,8.28,BR,1627638814.0
Butaritari,3.0707,172.7902,82.26,77.0,6.0,10.49,KI,1627638814.0
São Filipe,14.8961,-24.4956,74.88,81.0,60.0,6.93,CV,1627638814.0
Mataura,-46.1927,168.8643,48.47,93.0,100.0,1.23,NZ,1627638814.0
Buenos Aires,-34.6132,-58.3772,45.91,60.0,0.0,10.36,AR,1627638722.0
Puerto Ayora,-0.7393,-90.3518,70.41,88.0,45.0,7.61,EC,1627638814.0
Okakarara,-20.5833,17.4333,69.67,16.0,0.0,18.88,NA,1627638814.0
Vidim,56.4088,103.1106,72.41,60.0,84.0,2.84,RU,1627638815.0
Santa Cruz de la Sierra,-17.8,-63.1667,56.66,35.0,75.0,8.05,BO,1627638815.0
Bluff,-46.6,168.3333,48.79,81.0,100.0,2.73,NZ,1627638815.0
Riyadh,24.6877,46.7219,109.54,8.0,39.0,5.46,SA,1627638610.0
Hong Kong,22.2855,114.1577,87.39,82.0,83.0,1.01,HK,1627638743.0
Qasigiannguit,68.8193,-51.1922,44.19,60.0,12.0,1.63,GL,1627638815.0
Berdigestyakh,62.0989,126.6992,71.6,38.0,16.0,5.75,RU,1627638815.0
Jamestown,42.097,-79.2353,65.79,100.0,75.0,5.93,US,1627638815.0
Beian,63.6559,9.5683,58.68,71.0,75.0,11.5,NO,1627638815.0
Pevek,69.7008,170.3133,32.9,95.0,100.0,22.28,RU,1627638815.0
Coos Bay,43.3665,-124.2179,59.31,97.0,90.0,8.05,US,1627638816.0
Cape Town,-33.9258,18.4232,65.88,74.0,0.0,4.61,ZA,1627638606.0
Geraldton,-28.7667,114.6,61.21,63.0,40.0,16.11,AU,1627638816.0
Malaut,30.2167,74.4833,95.56,51.0,48.0,5.55,IN,1627638816.0
West Bay,19.3667,-81.4167,82.0,85.0,18.0,1.01,KY,1627638816.0
Nanortalik,60.1432,-45.2371,49.66,61.0,100.0,16.13,GL,1627638816.0
Umluj,25.0213,37.2685,90.59,56.0,65.0,11.77,SA,1627638816.0
Atuona,-9.8,-139.0333,77.74,76.0,91.0,17.63,PF,1627638816.0
Grindavik,63.8424,-22.4338,63.55,77.0,0.0,2.3,IS,1627638816.0
Teknāf,20.8624,92.3058,83.46,82.0,99.0,11.9,BD,1627638817.0
Temyasovo,52.9933,58.1014,79.16,30.0,92.0,19.71,RU,1627638817.0
Nurota,40.5614,65.6886,91.49,12.0,1.0,24.4,UZ,1627638817.0
Prigorodka,52.0447,39.7124,87.8,37.0,11.0,10.74,RU,1627638817.0
Sabang,5.8933,95.3214,82.51,76.0,100.0,19.57,ID,1627638817.0
Huron,41.1501,-82.5499,69.71,95.0,47.0,9.66,US,1627638817.0
Arlit,18.7369,7.3853,98.19,28.0,4.0,7.16,NE,1627638817.0
Cayenne,4.9333,-52.3333,75.09,91.0,90.0,2.3,GF,1627638817.0
Khovd,48.0056,91.6419,76.75,23.0,100.0,6.29,MN,1627638817.0
Hermanus,-34.4187,19.2345,64.9,67.0,85.0,3.11,ZA,1627638817.0
Bam,29.106,58.357,97.34,14.0,82.0,20.49,IR,1627638817.0
Tura,25.5198,90.2201,81.77,85.0,99.0,6.71,IN,1627638817.0
Tiksi,71.6872,128.8694,64.9,41.0,27.0,1.25,RU,1627638818.0
Maidenhead,51.5228,-0.7199,62.92,78.0,75.0,7.0,GB,1627638818.0
Muli,2.9167,73.5667,82.53,70.0,100.0,6.4,MV,1627638818.0
Bengkulu,-3.8004,102.2655,81.45,80.0,28.0,11.5,ID,1627638781.0
Port Hedland,-20.3167,118.5667,75.25,64.0,0.0,17.27,AU,1627638818.0
Diffa,13.3154,12.6113,84.18,63.0,98.0,14.79,NE,1627638818.0
Rawson,-43.3002,-65.1023,54.52,35.0,71.0,12.77,AR,1627638818.0
Nikolskoye,59.7035,30.7861,76.39,39.0,63.0,10.85,RU,1627638818.0
Khatanga,71.9667,102.5,91.24,28.0,5.0,12.26,RU,1627638818.0
Arraial do Cabo,-22.9661,-42.0278,64.36,67.0,0.0,10.36,BR,1627638818.0
Kattivākkam,13.2167,80.3167,95.09,45.0,99.0,6.67,IN,1627638818.0
Saint-François,46.4154,3.9054,72.48,72.0,0.0,3.44,FR,1627638819.0
Cherskiy,68.75,161.3,34.32,74.0,91.0,15.68,RU,1627638819.0
Portland,45.5234,-122.6762,74.1,66.0,2.0,1.01,US,1627638819.0
Kavaratti,10.5669,72.642,82.76,76.0,100.0,15.32,IN,1627638819.0
Severo-Kuril'sk,50.6789,156.125,58.62,94.0,64.0,5.59,RU,1627638819.0
George Town,5.4112,100.3354,87.75,68.0,20.0,5.75,MY,1627638638.0
Katsuura,35.1333,140.3,84.11,84.0,28.0,6.04,JP,1627638819.0
Mossamedes,-15.1961,12.1522,68.63,94.0,75.0,11.5,AO,1627638819.0
Rameswaram,9.2833,79.3,83.73,71.0,59.0,15.41,IN,1627638819.0
Ancud,-41.8697,-73.8203,42.33,91.0,100.0,9.1,CL,1627638819.0
San Patricio,28.017,-97.5169,82.81,82.0,38.0,2.37,US,1627638820.0
Zhigansk,66.7697,123.3711,71.91,37.0,9.0,3.33,RU,1627638820.0
Faanui,-16.4833,-151.75,77.5,75.0,98.0,14.92,PF,1627638820.0
Tasiilaq,65.6145,-37.6368,45.75,77.0,6.0,2.53,GL,1627638820.0
Haines Junction,60.7522,-137.5108,46.35,87.0,10.0,2.3,CA,1627638820.0
Villazón,-22.0866,-65.5942,30.9,37.0,41.0,7.2,BO,1627638820.0
Makkah al Mukarramah,21.4267,39.8261,105.44,13.0,11.0,9.48,SA,1627638602.0
Pisco,-13.7,-76.2167,62.65,82.0,90.0,10.36,PE,1627638820.0
Necochea,-38.5473,-58.7368,42.73,55.0,0.0,12.71,AR,1627638820.0
Kaitangata,-46.2817,169.8464,53.92,79.0,100.0,5.91,NZ,1627638821.0
Lebu,-37.6167,-73.65,47.53,91.0,51.0,8.9,CL,1627638821.0
Krasne,49.9145,24.6134,79.95,49.0,0.0,6.15,UA,1627638821.0
Paamiut,61.994,-49.6678,42.76,88.0,100.0,7.25,GL,1627638821.0
Talnakh,69.4865,88.3972,61.38,84.0,100.0,7.43,RU,1627638821.0
Yenagoa,4.9247,6.2642,85.93,54.0,93.0,5.84,NG,1627638821.0
Kabinda,-6.1333,24.4833,92.75,19.0,3.0,5.99,CD,1627638822.0
Kimberley,-28.7323,24.7623,62.29,17.0,0.0,2.3,ZA,1627638822.0
Carnarvon,-24.8667,113.6333,69.87,71.0,46.0,17.27,AU,1627638822.0
Bathsheba,13.2167,-59.5167,81.21,78.0,40.0,17.27,BB,1627638822.0
Ushuaia,-54.8,-68.3,38.86,45.0,20.0,5.75,AR,1627638805.0
Loíza,18.4313,-65.8802,81.05,85.0,74.0,11.21,PR,1627638822.0
Qaanaaq,77.484,-69.3632,41.29,85.0,97.0,7.38,GL,1627638823.0
Codrington,-38.2667,141.9667,57.74,47.0,59.0,22.77,AU,1627638823.0
Bethel,41.3712,-73.414,69.93,92.0,13.0,4.76,US,1627638823.0
Doha,25.2867,51.5333,111.18,18.0,0.0,13.8,QA,1627638765.0
Namatanai,-3.6667,152.4333,80.15,82.0,37.0,7.25,PG,1627638823.0
Pimentel,-6.8367,-79.9342,64.0,85.0,97.0,1.99,PE,1627638823.0
Pedernales,18.0384,-71.744,79.52,66.0,0.0,3.89,DO,1627638823.0
Bilma,18.6853,12.9164,100.71,22.0,41.0,10.45,NE,1627638823.0
Saldanha,-33.0117,17.9442,60.85,67.0,58.0,4.92,ZA,1627638823.0
Tapes,-30.6733,-51.3958,40.03,76.0,6.0,5.14,BR,1627638823.0
Rosendahl,51.7667,7.95,74.89,58.0,100.0,10.63,DE,1627638823.0
Hamilton,39.1834,-84.5333,74.73,89.0,75.0,1.99,US,1627638824.0
Laguna,38.421,-121.4238,85.82,57.0,1.0,1.99,US,1627638824.0
Mazamari,-11.3258,-74.5308,61.95,92.0,92.0,0.81,PE,1627638824.0
San Angelo,31.4638,-100.437,75.43,74.0,52.0,3.2,US,1627638824.0
Barrow,71.2906,-156.7887,44.62,93.0,1.0,8.05,US,1627638824.0
Diu,20.7141,70.9822,83.97,78.0,100.0,25.1,IN,1627638824.0
Kuantan,3.8077,103.326,91.51,62.0,20.0,3.44,MY,1627638824.0
Urengoy,65.9667,78.3667,61.68,50.0,47.0,13.98,RU,1627638824.0
Furukawa,38.5717,140.9556,83.34,94.0,20.0,4.18,JP,1627638824.0
Mar del Plata,-38.0023,-57.5575,46.99,74.0,0.0,1.99,AR,1627638696.0
Thompson,55.7435,-97.8558,55.56,94.0,20.0,0.0,CA,1627638825.0
East London,-33.0153,27.9116,67.14,45.0,0.0,2.3,ZA,1627638709.0
Byron Bay,-28.65,153.6167,54.72,69.0,0.0,6.44,AU,1627638825.0
Dabas,47.1859,19.3109,91.94,28.0,3.0,2.77,HU,1627638825.0
Biak,-0.9131,122.8766,78.19,86.0,63.0,6.58,ID,1627638825.0
Margate,51.3813,1.3862,64.87,67.0,68.0,5.99,GB,1627638825.0
Kasimov,54.9411,41.3953,85.46,40.0,100.0,8.75,RU,1627638825.0
Lata,40.1629,-8.3327,70.36,52.0,7.0,7.76,PT,1627638825.0
Hilo,19.7297,-155.09,74.8,93.0,100.0,1.52,US,1627638825.0
Hasaki,35.7333,140.8333,81.28,83.0,7.0,7.25,JP,1627638825.0
Bredasdorp,-34.5322,20.0403,62.28,59.0,0.0,5.75,ZA,1627638825.0
Uusikaupunki,60.8004,21.4084,61.32,68.0,75.0,6.06,FI,1627638826.0
Upernavik,72.7868,-56.1549,43.47,84.0,40.0,7.92,GL,1627638826.0
Nacozari,25.3366,-108.2574,74.1,73.0,70.0,3.74,MX,1627638826.0
Inongo,-1.95,18.2667,79.32,35.0,32.0,2.1,CD,1627638826.0
Bobon,12.5246,124.5636,85.08,74.0,98.0,9.48,PH,1627638826.0
Kwang Binh,17.4833,106.6,90.79,62.0,100.0,12.26,VN,1627638826.0
Mindelo,16.8901,-24.9804,74.75,78.0,75.0,10.36,CV,1627638826.0
Kilindoni,-7.9139,39.6668,75.74,72.0,3.0,17.81,TZ,1627638826.0
Tabou,4.423,-7.3528,80.11,74.0,90.0,5.7,CI,1627638826.0
Laranjeiras do Sul,-25.4078,-52.4161,28.44,75.0,2.0,3.33,BR,1627638827.0
Nara,34.6851,135.8049,90.97,51.0,32.0,2.55,JP,1627638827.0
Kiunga,-6.1219,141.2906,74.73,98.0,94.0,2.06,PG,1627638827.0
Cocotitlán,19.2333,-98.8667,60.35,89.0,94.0,3.76,MX,1627638827.0
Örnsköldsvik,63.2909,18.7153,64.22,94.0,75.0,5.75,SE,1627638604.0
Dibulla,11.2725,-73.3091,76.46,85.0,78.0,5.01,CO,1627638827.0
Lompoc,34.6391,-120.4579,59.31,92.0,90.0,3.44,US,1627638827.0
Chokurdakh,70.6333,147.9167,54.72,45.0,95.0,4.56,RU,1627638827.0
Sterlitamak,53.6246,55.9502,87.94,32.0,84.0,20.89,RU,1627638564.0
Saint Paul Harbor,57.79,-152.4072,49.82,89.0,78.0,4.99,US,1627638827.0
Solnechnyy,50.7214,136.6319,61.68,82.0,58.0,7.92,RU,1627638827.0
Sitka,57.0531,-135.33,61.43,65.0,50.0,3.94,US,1627638828.0
Padang,-0.9492,100.3543,87.85,71.0,14.0,4.45,ID,1627638828.0
Saskylakh,71.9167,114.0833,89.42,32.0,9.0,5.68,RU,1627638828.0
Avarua,-21.2078,-159.775,64.45,100.0,21.0,2.3,CK,1627638828.0
Castro,-24.7911,-50.0119,30.34,70.0,6.0,2.53,BR,1627638828.0
Inírida,3.8653,-67.9239,71.01,99.0,82.0,1.95,CO,1627638828.0
Omaruru,-21.4333,15.9333,71.26,15.0,0.0,23.51,NA,1627638828.0
Bandarbeyla,9.4942,50.8122,86.58,52.0,100.0,30.56,SO,1627638828.0
Florence,43.7667,11.25,92.08,43.0,0.0,2.3,IT,1627638600.0
Ratnagiri,16.9833,73.3,81.32,83.0,100.0,16.35,IN,1627638760.0
Kudahuvadhoo,2.6708,72.8944,82.51,70.0,100.0,5.23,MV,1627638829.0
Arkadak,51.9326,43.4978,83.46,50.0,98.0,10.92,RU,1627638829.0
Fort-Shevchenko,44.5086,50.263,85.32,37.0,0.0,6.31,KZ,1627638829.0
Gachsaran,30.3586,50.7981,107.69,9.0,0.0,6.91,IR,1627638829.0
Te Anau,-45.4167,167.7167,46.87,97.0,100.0,1.1,NZ,1627638829.0
Los Llanos de Aridane,28.6585,-17.9182,69.55,87.0,20.0,17.27,ES,1627638645.0
Maţāy,28.419,30.7792,99.25,18.0,9.0,11.34,EG,1627638829.0
Mahébourg,-20.4081,57.7,75.49,60.0,75.0,16.11,MU,1627638829.0
Kupang,-10.1667,123.5833,78.01,78.0,7.0,11.27,ID,1627638829.0
Ovalle,-30.5983,-71.2003,50.92,61.0,0.0,0.67,CL,1627638829.0
Sistranda,63.7256,8.834,55.36,80.0,100.0,9.6,NO,1627638830.0
Slyudyanka,51.6594,103.7061,58.42,90.0,100.0,0.38,RU,1627638830.0
Souillac,-20.5167,57.5167,75.58,60.0,75.0,16.11,MU,1627638830.0
Kavieng,-2.5744,150.7967,83.16,75.0,7.0,9.26,PG,1627638830.0
Oktyabr'skiy,54.4815,53.471,78.71,56.0,100.0,15.75,RU,1627638830.0
Henties Bay,-22.116,14.2845,82.8,20.0,0.0,22.39,NA,1627638830.0
Gawler,-34.6,138.7333,63.91,71.0,43.0,7.25,AU,1627638830.0
Tacuarembó,-31.7333,-55.9833,35.06,80.0,0.0,2.75,UY,1627638830.0
Pangai,-19.8,-174.35,74.61,85.0,99.0,14.43,TO,1627638830.0
Novoil'insk,51.6829,108.7143,68.04,63.0,100.0,7.18,RU,1627638830.0
Rapid Valley,44.0625,-103.1463,62.2,93.0,90.0,16.11,US,1627638831.0
Esperance,-33.8667,121.9,51.64,62.0,99.0,22.32,AU,1627638831.0
Rocha,-34.4833,-54.3333,37.62,74.0,0.0,4.79,UY,1627638831.0
Gimli,50.6336,-96.9907,66.22,59.0,46.0,5.75,CA,1627638831.0
Khor,47.8861,134.9464,79.39,66.0,99.0,6.58,RU,1627638831.0
Cidreira,-30.1811,-50.2056,41.05,80.0,10.0,10.33,BR,1627638831.0
Fallon,39.4735,-118.7774,78.67,33.0,1.0,11.5,US,1627638831.0
Bubaque,11.2833,-15.8333,78.67,82.0,100.0,8.41,GW,1627638831.0
Zhalantun,48.0,122.7167,74.39,91.0,75.0,8.19,CN,1627638832.0
Kumul,42.8,93.45,106.32,8.0,0.0,4.99,CN,1627638812.0
Swellendam,-34.0226,20.4417,61.18,53.0,98.0,1.72,ZA,1627638832.0
Mikhaylovka,50.06,43.2379,93.09,28.0,78.0,14.32,RU,1627638832.0
Kasane,-17.8167,25.15,71.69,24.0,0.0,20.71,BW,1627638649.0
Caravelas,-17.7125,-39.2481,66.49,81.0,100.0,14.0,BR,1627638832.0
Provideniya,64.3833,-173.3,47.66,87.0,73.0,5.82,RU,1627638832.0
Longyearbyen,78.2186,15.6401,46.24,66.0,75.0,6.91,SJ,1627638832.0
Olafsvik,64.8945,-23.7142,53.8,87.0,100.0,3.85,IS,1627638832.0
Zyryanovsk,49.7386,84.2719,79.0,35.0,100.0,5.1,KZ,1627638832.0
Christchurch,-43.5333,172.6333,52.92,90.0,72.0,7.0,NZ,1627638833.0
Alice Springs,-23.7,133.8833,76.55,21.0,0.0,11.99,AU,1627638766.0
Manoel Urbano,-8.8389,-69.2597,53.47,47.0,12.0,3.02,BR,1627638833.0
Coxen Hole,16.3244,-86.5366,81.16,79.0,90.0,15.03,HN,1627638833.0
Saint George,37.1041,-113.5841,75.67,74.0,1.0,3.44,US,1627638833.0
Posse,-14.0931,-46.3694,59.07,35.0,0.0,5.12,BR,1627638833.0
Dolinsk,47.35,142.8,75.06,87.0,100.0,4.9,RU,1627638833.0
Esim,4.8699,-2.2405,80.98,70.0,43.0,6.85,GH,1627638833.0
Darovskoy,58.77,47.9564,74.14,57.0,49.0,9.62,RU,1627638833.0
Ostrovnoy,68.0531,39.5131,49.91,77.0,78.0,8.55,RU,1627638833.0
Impfondo,1.6381,18.0667,86.07,47.0,97.0,1.3,CG,1627638833.0
Eirunepé,-6.6603,-69.8736,59.88,51.0,29.0,4.0,BR,1627638785.0
Nepomuceno,-21.2358,-45.2358,37.51,60.0,5.0,3.58,BR,1627638834.0
Valréas,44.3837,4.9908,81.72,65.0,100.0,2.08,FR,1627638834.0
Clyde River,70.4692,-68.5914,35.83,100.0,1.0,10.36,CA,1627638834.0
Yellowknife,62.456,-114.3525,59.29,94.0,75.0,5.75,CA,1627638834.0
New Norfolk,-42.7826,147.0587,54.91,61.0,88.0,3.0,AU,1627638834.0
Yelizovo,53.1873,158.3805,68.14,100.0,75.0,4.47,RU,1627638834.0
Patrocínio,-18.9439,-46.9925,41.32,30.0,0.0,3.09,BR,1627638834.0
Svobodnyy,51.4,128.1333,70.3,73.0,20.0,11.16,RU,1627638834.0
Barvinkove,48.9097,37.0205,88.27,48.0,19.0,10.71,UA,1627638834.0
Tres Arroyos,-38.3739,-60.2798,42.03,47.0,0.0,15.01,AR,1627638835.0
São José da Coroa Grande,-8.8978,-35.1478,73.9,81.0,92.0,3.53,BR,1627638835.0
Swan River,52.1058,-101.2676,66.09,63.0,76.0,6.91,CA,1627638835.0
Nkhotakota,-12.9274,34.2961,76.37,44.0,2.0,10.8,MW,1627638835.0
Vestmanna,62.1564,-7.1664,50.92,82.0,81.0,23.02,FO,1627638835.0
Banda Aceh,5.5577,95.3222,82.42,74.0,100.0,12.06,ID,1627638835.0
Torbay,47.6666,-52.7314,61.27,83.0,75.0,14.97,CA,1627638835.0
Meulaboh,4.1363,96.1285,83.21,72.0,100.0,8.16,ID,1627638835.0
Port Lincoln,-34.7333,135.8667,58.51,86.0,0.0,17.45,AU,1627638835.0
Monrovia,6.3005,-10.7969,80.37,72.0,76.0,5.28,LR,1627638835.0
Constitución,-35.3333,-72.4167,49.23,73.0,0.0,2.93,CL,1627638835.0
Lapeer,43.0514,-83.3188,64.27,100.0,75.0,4.61,US,1627638836.0
Tuktoyaktuk,69.4541,-133.0374,52.32,93.0,99.0,5.86,CA,1627638671.0
Sakakah,29.9697,40.2064,98.17,12.0,4.0,4.18,SA,1627638755.0
Bata,1.8639,9.7658,80.46,83.0,40.0,11.5,GQ,1627638836.0
Mount Isa,-20.7333,139.5,69.57,24.0,66.0,0.0,AU,1627638836.0
Dudinka,69.4058,86.1778,69.51,57.0,100.0,11.7,RU,1627638836.0
Vondrozo,-22.8167,47.2833,69.4,66.0,33.0,4.97,MG,1627638836.0
Hofn,64.2539,-15.2082,57.15,72.0,37.0,8.9,IS,1627638836.0
Levelland,33.5873,-102.378,74.95,58.0,55.0,6.22,US,1627638733.0
Half Moon Bay,37.4636,-122.4286,67.75,89.0,1.0,0.0,US,1627638837.0
Dingle,10.9995,122.6711,81.73,78.0,55.0,11.68,PH,1627638837.0
Magistral'nyy,56.1725,107.4458,85.17,29.0,1.0,8.28,RU,1627638837.0
Cap Malheureux,-19.9842,57.6142,75.69,64.0,2.0,13.0,MU,1627638837.0
Comodoro Rivadavia,-45.8667,-67.5,51.66,50.0,0.0,19.57,AR,1627638837.0
Fujin,47.26,132.0322,75.33,82.0,100.0,11.52,CN,1627638837.0
Kamenka,51.3223,42.7678,79.0,56.0,100.0,8.61,RU,1627638782.0
Kiama,-34.6833,150.8667,56.57,67.0,0.0,1.01,AU,1627638837.0
Limoeiro do Ajuru,-1.8953,-49.3806,75.43,90.0,48.0,4.88,BR,1627638837.0
Klaksvík,62.2266,-6.589,52.72,86.0,100.0,16.93,FO,1627638837.0
Paralia Milatou,35.3167,25.5667,87.94,48.0,0.0,11.54,GR,1627638837.0
Porteirinha,-15.7433,-43.0283,67.23,80.0,1.0,7.38,BR,1627638838.0
Gangarampur,25.4,88.5167,87.94,70.0,100.0,13.02,IN,1627638838.0
Pailón,-17.65,-62.75,58.1,44.0,4.0,5.28,BO,1627638838.0
Faya,18.3851,42.4509,88.32,39.0,80.0,6.73,SA,1627638838.0
Carballo,43.213,-8.691,69.58,86.0,97.0,6.42,ES,1627638838.0
Saqqez,36.2499,46.2735,89.56,23.0,2.0,9.8,IR,1627638654.0
Shahrud,36.4182,54.9763,84.02,34.0,50.0,13.18,IR,1627638625.0
Houma,29.5958,-90.7195,79.0,96.0,93.0,1.66,US,1627638838.0
Almaznyy,48.0448,40.045,86.14,42.0,99.0,11.39,RU,1627638839.0
Baykit,61.67,96.37,63.19,93.0,100.0,3.8,RU,1627638839.0
Taungdwingyi,20.0167,95.55,85.03,77.0,100.0,9.89,MM,1627638839.0
Mehamn,71.0357,27.8492,48.11,85.0,100.0,6.31,NO,1627638839.0
Vanavara,60.34,102.2797,86.22,30.0,5.0,8.68,RU,1627638839.0
Musoma,-1.5,33.8,80.62,44.0,75.0,0.0,TZ,1627638839.0
Sarkand,45.41,79.9186,73.83,42.0,100.0,3.78,KZ,1627638839.0
Asău,46.4333,26.4,85.75,51.0,0.0,2.68,RO,1627638839.0
Lorengau,-2.0226,147.2712,82.65,75.0,17.0,4.61,PG,1627638839.0
Jieshi,22.8134,115.8257,85.95,81.0,100.0,11.52,CN,1627638839.0
Lianzhou,24.7811,112.3825,88.2,79.0,77.0,2.35,CN,1627638840.0
Karratha,-20.7377,116.8463,73.27,64.0,0.0,16.82,AU,1627638840.0
La Ronge,55.1001,-105.2842,61.05,88.0,20.0,4.61,CA,1627638840.0
Mount Gambier,-37.8333,140.7667,55.31,58.0,75.0,19.57,AU,1627638840.0
Bintulu,3.1667,113.0333,88.21,70.0,20.0,0.0,MY,1627638840.0
Mankāchar,25.5333,89.8667,86.16,78.0,94.0,14.43,IN,1627638840.0
Tezu,27.9167,96.1667,79.92,94.0,100.0,1.34,IN,1627638840.0
Ust'-Omchug,61.15,149.6333,43.81,65.0,18.0,8.21,RU,1627638840.0
Devonport,-41.1667,146.35,48.09,88.0,100.0,14.97,AU,1627638840.0
Barra do Garças,-15.89,-52.2567,51.46,30.0,0.0,1.95,BR,1627638841.0
Buchanan,5.8808,-10.0467,80.56,73.0,87.0,5.39,LR,1627638841.0
Ust-Kuyga,70.0167,135.6,71.4,37.0,67.0,4.29,RU,1627638841.0
Derby,52.9228,-1.4766,62.74,83.0,90.0,10.36,GB,1627638773.0
Ashland,40.8167,-82.2665,67.05,97.0,30.0,7.72,US,1627638841.0
Boffa,10.1667,-14.0333,78.26,86.0,94.0,3.31,GN,1627638841.0
Vallenar,-28.5708,-70.7581,53.49,35.0,0.0,1.32,CL,1627638841.0
Vao,-22.6667,167.4833,69.21,62.0,48.0,26.71,NC,1627638841.0
Bilibino,68.0546,166.4372,34.65,68.0,51.0,10.02,RU,1627638841.0
Ambon City,-3.6954,128.1814,80.74,83.0,40.0,4.61,ID,1627638842.0
Homer,59.6425,-151.5483,54.81,82.0,90.0,0.0,US,1627638842.0
Magadan,59.5667,150.8,51.87,61.0,15.0,9.08,RU,1627638842.0
Narsaq,60.9167,-46.05,52.12,50.0,100.0,5.44,GL,1627638842.0
Ahipara,-35.1667,173.1667,59.0,87.0,100.0,17.0,NZ,1627638842.0
Nur-Sultan,51.1801,71.446,78.75,21.0,40.0,6.71,KZ,1627638622.0
Kingman,35.1894,-114.053,84.02,57.0,100.0,1.19,US,1627638842.0
Dikson,73.5069,80.5464,41.9,91.0,100.0,8.32,RU,1627638842.0
Itarema,-2.9248,-39.9167,77.63,86.0,54.0,10.16,BR,1627638842.0
Yangi Marg`ilon,40.4272,71.7189,92.12,21.0,20.0,6.91,UZ,1627638842.0
Erenhot,43.6475,111.9767,86.7,26.0,1.0,16.58,CN,1627638843.0
Salalah,17.0151,54.0924,79.86,84.0,100.0,16.42,OM,1627638843.0
Iranshahr,27.2025,60.6848,111.54,9.0,0.0,9.22,IR,1627638843.0
Howard Springs,-12.497,131.047,82.31,79.0,10.0,5.26,AU,1627638843.0
Sumé,-7.6717,-36.88,66.63,80.0,94.0,6.67,BR,1627638843.0
Sola,-13.8833,167.55,75.87,94.0,40.0,0.0,VU,1627638843.0
Moerai,-22.4333,-151.3333,71.64,69.0,9.0,11.03,PF,1627638843.0
Airai,-8.9266,125.4092,60.66,82.0,26.0,1.86,TL,1627638843.0
Shingū,33.7333,135.9833,83.39,85.0,18.0,3.51,JP,1627638844.0
Miquelon,47.0975,-56.3814,57.2,84.0,100.0,11.23,PM,1627638844.0
Northam,51.0333,-4.2167,62.22,93.0,79.0,27.45,GB,1627638844.0
Gouré,13.9835,10.2704,84.02,52.0,83.0,7.85,NE,1627638844.0
Kruisfontein,-34.0033,24.7314,65.88,39.0,58.0,4.23,ZA,1627638844.0
Rahimatpur,17.6,74.2,73.0,85.0,100.0,15.75,IN,1627638844.0
Liverpool,53.4106,-2.9779,61.77,86.0,75.0,5.01,GB,1627638666.0
Tromsø,69.6496,18.957,63.25,62.0,40.0,12.66,NO,1627638662.0
Cabo San Lucas,22.8909,-109.9124,82.62,73.0,2.0,3.96,MX,1627638844.0
Iqaluit,63.7506,-68.5145,46.13,87.0,75.0,5.01,CA,1627638844.0
Big Rapids,43.6981,-85.4837,56.57,87.0,1.0,3.44,US,1627638845.0
Izumo,35.3667,132.7667,84.15,78.0,75.0,8.05,JP,1627638845.0
Semporna,4.4818,118.6112,86.2,79.0,16.0,7.43,MY,1627638845.0
Suixi,33.8907,116.7747,82.94,82.0,100.0,5.41,CN,1627638845.0
Archidona,37.0965,-4.3887,84.42,25.0,2.0,6.53,ES,1627638845.0
Taganak,6.0833,118.3,87.94,71.0,70.0,11.41,PH,1627638845.0
Roanoke Rapids,36.4615,-77.6542,78.21,73.0,99.0,6.96,US,1627638845.0
Vardø,70.3705,31.1107,50.2,76.0,40.0,8.79,NO,1627638845.0
Umeå,63.8284,20.2597,62.53,88.0,75.0,4.61,SE,1627638845.0
Awjilah,29.1081,21.2869,100.08,14.0,0.0,8.08,LY,1627638845.0
Marrakesh,31.6315,-8.0083,80.67,57.0,40.0,9.22,MA,1627638559.0
Wagar,16.1525,36.2032,89.85,53.0,83.0,20.11,SD,1627638845.0
Fort Nelson,58.8053,-122.7002,51.39,87.0,1.0,2.3,CA,1627638846.0
Beyneu,45.3167,55.2,93.52,12.0,2.0,4.92,KZ,1627638846.0
Kaniama,-7.5667,24.1833,89.49,19.0,1.0,7.0,CD,1627638846.0
Srednekolymsk,67.45,153.6833,49.35,54.0,51.0,4.36,RU,1627638846.0
Mapiripán,2.8892,-72.1256,68.88,99.0,85.0,3.62,CO,1627638846.0
Ulladulla,-35.35,150.4667,50.88,51.0,0.0,6.17,AU,1627638846.0
Gemena,3.25,19.7667,86.99,47.0,99.0,2.98,CD,1627638846.0
Shubarshi,48.5872,57.1869,89.17,18.0,36.0,0.67,KZ,1627638846.0
Shiloh,38.5614,-89.8973,75.31,98.0,75.0,4.61,US,1627638846.0
Lüderitz,-26.6481,15.1594,77.54,28.0,0.0,11.86,NA,1627638847.0
Jérémie,18.65,-74.1167,78.75,73.0,4.0,2.75,HT,1627638847.0
Hualmay,-11.0964,-77.6139,62.19,88.0,63.0,7.25,PE,1627638847.0
Sandpoint,48.2766,-116.5533,70.68,62.0,1.0,0.0,US,1627638847.0
Ginir,7.1333,40.7,68.4,56.0,98.0,14.38,ET,1627638847.0
Yulara,-25.2406,130.9889,76.84,25.0,0.0,14.97,AU,1627638847.0
Barra de Tecoanapa,16.5167,-98.75,76.06,91.0,100.0,4.43,MX,1627638847.0
College,64.8569,-147.8028,60.78,85.0,90.0,3.44,US,1627638847.0
Oranjemund,-28.55,16.4333,71.46,26.0,0.0,10.76,NA,1627638848.0
Māngrol,21.1167,70.1167,83.68,80.0,100.0,24.79,IN,1627638848.0
Coquimbo,-29.9533,-71.3436,46.13,93.0,90.0,4.61,CL,1627638848.0
Bowen,-20.0167,148.2333,70.02,88.0,0.0,12.91,AU,1627638848.0
Ankaran,45.5786,13.7361,90.75,58.0,20.0,5.75,SI,1627638848.0
Tessalit,20.1986,1.0114,98.76,24.0,10.0,8.48,ML,1627638848.0
Westport,41.1415,-73.3579,72.19,95.0,6.0,3.0,US,1627638848.0
Brae,60.3964,-1.353,55.31,79.0,97.0,11.9,GB,1627638848.0
Davidson,36.1501,-86.7833,81.19,83.0,20.0,3.0,US,1627638848.0
Krasnosel'kup,65.7,82.4667,67.91,41.0,16.0,7.4,RU,1627638848.0
Puerto El Triunfo,13.2833,-88.55,77.27,80.0,68.0,4.52,SV,1627638848.0
Thinadhoo,0.5333,72.9333,82.71,69.0,89.0,5.95,MV,1627638849.0
Fairbanks,64.8378,-147.7164,61.09,86.0,90.0,3.44,US,1627638849.0
Florø,61.5996,5.0328,74.23,63.0,20.0,13.8,NO,1627638849.0
Aykhal,66.0,111.5,77.7,24.0,3.0,7.0,RU,1627638849.0
Skjervøy,70.0311,20.9714,57.2,78.0,96.0,16.11,NO,1627638849.0
Dongsheng,39.8161,109.9776,90.72,15.0,2.0,9.46,CN,1627638849.0
Coyhaique,-45.5752,-72.0662,35.55,87.0,0.0,13.8,CL,1627638849.0
Härnösand,62.6323,17.9379,66.2,77.0,97.0,6.76,SE,1627638849.0
Tel'ma,52.6983,103.7097,60.01,72.0,100.0,6.82,RU,1627638849.0
Capitão Poço,-1.7464,-47.0594,72.07,97.0,38.0,3.4,BR,1627638849.0
Yamada,39.4667,141.95,72.36,95.0,1.0,5.26,JP,1627638850.0
Baruun-Urt,46.6806,113.2792,77.85,42.0,24.0,13.62,MN,1627638850.0
Simga,21.6333,81.7,77.52,87.0,100.0,16.58,IN,1627638850.0
Puri,19.8,85.85,84.72,79.0,100.0,18.86,IN,1627638850.0
Havelock,34.8791,-76.9013,82.35,88.0,50.0,1.99,US,1627638850.0
Stromness,58.965,-3.296,57.45,94.0,100.0,9.98,GB,1627638850.0
Nambucca Heads,-30.65,153.0,59.0,65.0,0.0,11.56,AU,1627638850.0
Kiruna,67.8557,20.2251,49.12,71.0,90.0,3.44,SE,1627638632.0
Gigmoto,13.7796,124.39,84.88,74.0,93.0,9.84,PH,1627638850.0
Saint-Joseph,-21.3667,55.6167,71.98,68.0,42.0,14.52,RE,1627638851.0
Sinnamary,5.3833,-52.95,76.08,89.0,21.0,3.51,GF,1627638851.0
Huai'an,33.5886,119.0192,83.68,81.0,28.0,3.89,CN,1627638851.0
Guerrero Negro,27.9769,-114.0611,69.13,87.0,49.0,8.41,MX,1627638851.0
Vestmannaeyjar,63.4427,-20.2734,58.19,88.0,75.0,4.61,IS,1627638851.0
Havøysund,70.9963,24.6622,50.88,84.0,100.0,14.14,NO,1627638851.0
Alegrete,-29.7831,-55.7919,36.73,78.0,0.0,3.02,BR,1627638851.0
Cozieni,45.3333,26.4833,87.31,42.0,0.0,5.19,RO,1627638664.0
Kimbe,-5.5502,150.1429,77.13,89.0,95.0,2.86,PG,1627638851.0
Palmer,42.1584,-72.3287,66.15,82.0,75.0,3.44,US,1627638852.0
Tomatlán,19.9333,-105.25,74.43,93.0,59.0,3.98,MX,1627638852.0
Olinda,-8.0089,-34.8553,71.33,83.0,40.0,3.44,BR,1627638852.0
Ostër,50.9506,30.8823,83.1,42.0,2.0,7.72,UA,1627638852.0
Kabalo,-6.05,26.9167,93.65,17.0,3.0,10.33,CD,1627638599.0
Palu,-0.8917,119.8707,79.57,93.0,97.0,2.01,ID,1627638852.0
Sembakung,3.8167,117.25,87.73,87.0,77.0,4.32,ID,1627638852.0
Lavrentiya,65.5833,-171.0,44.33,94.0,100.0,3.24,RU,1627638852.0
Honiara,-9.4333,159.95,78.33,88.0,23.0,4.18,SB,1627638852.0
Wajima,37.4,136.9,81.28,78.0,40.0,4.61,JP,1627638852.0
Alofi,-19.0595,-169.9187,71.49,100.0,100.0,5.75,NU,1627638853.0
Yagodnoye,62.55,149.6667,44.82,64.0,100.0,5.21,RU,1627638853.0
Hlatikulu,-26.9667,31.3167,61.75,38.0,0.0,5.14,SZ,1627638853.0
Luwuk,-0.9516,122.7875,79.36,90.0,69.0,5.35,ID,1627638853.0
Karlskoga,59.3267,14.5239,66.38,88.0,97.0,4.52,SE,1627638853.0
Gloucester,51.8657,-2.2431,62.47,90.0,75.0,10.36,GB,1627638853.0
Erzin,36.9559,36.2,97.32,35.0,0.0,8.14,TR,1627638853.0
Sompeta,18.9333,84.6,83.55,77.0,100.0,7.47,IN,1627638854.0
Manokwari,-0.8667,134.0833,80.73,76.0,93.0,3.49,ID,1627638854.0
Susaki,33.3667,133.2833,84.27,88.0,74.0,1.43,JP,1627638854.0
Bodinayakkanur,10.0167,77.35,89.89,44.0,100.0,9.51,IN,1627638854.0
Norman Wells,65.282,-126.8329,55.44,88.0,75.0,0.0,CA,1627638854.0
Sayyan,15.1718,44.3244,76.51,34.0,75.0,5.26,YE,1627638854.0
Vung Tau,10.346,107.0843,79.34,87.0,100.0,21.61,VN,1627638854.0
Broome,42.2506,-75.833,65.19,97.0,90.0,1.01,US,1627638854.0
Beloha,-25.1667,45.05,81.3,41.0,0.0,3.6,MG,1627638855.0
Vostok,46.4856,135.8833,70.95,85.0,100.0,1.5,RU,1627638855.0
Rawlins,41.7911,-107.2387,66.42,60.0,100.0,5.68,US,1627638855.0
Barranca,-10.75,-77.7667,62.74,85.0,92.0,6.96,PE,1627638855.0
Ponta Delgada,37.7333,-25.6667,72.32,83.0,40.0,8.05,PT,1627638829.0
Kapuskasing,49.4169,-82.4331,41.09,93.0,1.0,4.61,CA,1627638855.0
Ribeira Grande,38.5167,-28.7,73.8,78.0,20.0,0.0,PT,1627638855.0
Bras-Panon,-20.9967,55.6782,73.06,70.0,75.0,14.25,RE,1627638855.0
San Jose,37.3394,-121.895,70.12,83.0,1.0,5.75,US,1627638731.0
Shellbrook,53.2168,-106.4011,56.43,71.0,2.0,7.83,CA,1627638855.0
Hirara,24.8,125.2833,86.27,84.0,40.0,11.5,JP,1627638856.0
Beringovskiy,63.05,179.3167,41.22,82.0,100.0,8.1,RU,1627638856.0
Arman',59.7,150.1667,51.76,57.0,31.0,12.64,RU,1627638856.0
Fatsa,41.0278,37.5014,80.55,66.0,37.0,8.37,TR,1627638856.0
Bougouni,11.417,-7.479,79.39,75.0,90.0,6.62,ML,1627638856.0
Tocopilla,-22.092,-70.1979,60.66,68.0,29.0,4.41,CL,1627638856.0
Uglegorsk,49.0833,142.0333,67.08,99.0,100.0,3.15,RU,1627638856.0
Tsimmerbude,54.675,20.1347,71.65,46.0,14.0,21.85,RU,1627638856.0
Osijek,45.5511,18.6939,92.41,45.0,0.0,6.91,HR,1627638856.0
South Yuba City,39.1166,-121.6391,88.38,53.0,1.0,4.61,US,1627638856.0
Candeias,-20.7676,-45.2764,38.52,59.0,5.0,4.97,BR,1627638857.0
Chui,-33.6971,-53.4616,37.65,84.0,3.0,5.61,UY,1627638857.0
Laas,46.6166,10.7002,76.03,51.0,2.0,3.74,IT,1627638857.0
Panzhihua,26.5851,101.7128,88.7,50.0,78.0,1.52,CN,1627638857.0
Aborlan,9.4352,118.5492,83.32,83.0,64.0,8.12,PH,1627638857.0
Boda,4.3189,17.4695,83.98,61.0,88.0,4.5,CF,1627638857.0
Chimbote,-9.0853,-78.5783,63.66,89.0,76.0,8.16,PE,1627638857.0
Atbasar,51.8,68.3333,76.51,25.0,60.0,8.39,KZ,1627638857.0
Maragogi,-9.0122,-35.2225,73.06,82.0,95.0,3.27,BR,1627638857.0
Ketchikan,55.3422,-131.6461,59.7,92.0,34.0,3.11,US,1627638858.0
Leh,34.1667,77.5833,67.77,51.0,80.0,4.92,IN,1627638858.0
Richards Bay,-28.783,32.0377,71.06,53.0,15.0,5.41,ZA,1627638858.0
Vila Velha,-20.3297,-40.2925,62.55,63.0,75.0,14.97,BR,1627638858.0
Chenôve,47.2932,5.0046,74.62,53.0,0.0,8.05,FR,1627638858.0
Zhengjiatun,43.5064,123.5064,70.18,96.0,100.0,13.94,CN,1627638858.0
Saint Anthony,45.0205,-93.218,66.7,84.0,1.0,0.0,US,1627638858.0
Kalianget,-7.05,113.9333,82.29,72.0,18.0,11.97,ID,1627638858.0
Cheţani,46.4667,24.0333,86.41,61.0,1.0,2.3,RO,1627638858.0
Altay,47.8667,88.1167,80.04,24.0,100.0,14.94,CN,1627638858.0
St. George's,12.0564,-61.7485,78.48,83.0,40.0,6.91,GD,1627638680.0
Matagami,49.7502,-77.6328,44.71,87.0,90.0,14.97,CA,1627638859.0
Marabu,4.4148,114.0089,86.14,70.0,40.0,3.44,MY,1627638859.0
Youhao,47.8667,128.8333,78.8,69.0,100.0,7.14,CN,1627638859.0
Jianning,27.8333,113.15,95.13,62.0,75.0,6.87,CN,1627638767.0
Aklavik,68.2191,-135.0107,65.23,59.0,94.0,4.03,CA,1627638859.0
Nome,64.5011,-165.4064,48.27,93.0,90.0,5.75,US,1627638627.0
Gordeyevka,52.9569,31.9703,80.74,43.0,5.0,11.63,RU,1627638859.0
Ulaanbaatar,47.9077,106.8832,60.93,67.0,40.0,17.9,MN,1627638625.0
Valparaíso,-33.0393,-71.6273,50.47,91.0,90.0,3.44,CL,1627638603.0
Jalostotitlán,21.2,-102.4667,61.79,89.0,88.0,1.14,MX,1627638744.0
Mahibadhoo,3.7833,72.9667,82.83,68.0,100.0,7.47,MV,1627638860.0
Fenoarivo,-18.933,47.4354,64.47,63.0,75.0,13.8,MG,1627638860.0
Guarapari,-20.6667,-40.4975,62.49,72.0,49.0,12.3,BR,1627638860.0
Phuket,8.0,98.25,83.08,83.0,75.0,12.66,TH,1627638738.0
Ponta do Sol,32.6667,-17.1,77.72,66.0,9.0,4.14,PT,1627638860.0
Bahía Solano,6.2262,-77.4044,77.81,86.0,87.0,4.68,CO,1627638860.0
Tegul'det,57.3064,88.1667,75.54,35.0,100.0,1.77,RU,1627638860.0
Riviere-au-Renard,48.9957,-64.3971,60.8,74.0,100.0,8.41,CA,1627638860.0
Leningradskiy,69.3833,178.4167,32.34,98.0,100.0,20.02,RU,1627638860.0
Barcelos,41.5388,-8.6151,76.28,55.0,3.0,6.82,PT,1627638860.0
Maumere,-8.6199,122.2111,79.34,74.0,5.0,7.63,ID,1627638861.0
Morondava,-20.2833,44.2833,79.52,55.0,0.0,9.1,MG,1627638861.0
Tilichiki,60.4667,166.1,45.23,69.0,66.0,16.53,RU,1627638861.0
Morón,-34.6534,-58.6198,45.91,67.0,0.0,1.01,AR,1627638861.0
Semnan,35.5729,53.3971,91.38,25.0,71.0,7.38,IR,1627638571.0
Ilulissat,69.2167,-51.1,42.85,60.0,7.0,2.28,GL,1627638861.0
Emiliano Zapata,18.8333,-99.1833,72.82,93.0,95.0,3.0,MX,1627638861.0
Suntar,62.1444,117.6319,76.66,32.0,7.0,5.82,RU,1627638861.0
Forio,40.7342,13.8646,93.78,68.0,0.0,8.84,IT,1627638861.0
Kostanay,53.1667,63.5833,73.69,43.0,75.0,13.42,KZ,1627638862.0
Øksfjord,70.2396,22.3479,55.47,70.0,100.0,5.39,NO,1627638862.0
Lagoa,39.05,-27.9833,69.58,84.0,0.0,4.41,PT,1627638862.0
Mackay,-21.15,149.2,69.78,83.0,90.0,11.5,AU,1627638862.0
Fortuna,40.5982,-124.1573,66.18,95.0,90.0,0.0,US,1627638862.0
Bendigo,-36.7667,144.2833,50.86,52.0,86.0,3.0,AU,1627638862.0
Campbell River,50.0163,-125.2446,71.13,82.0,0.0,5.84,CA,1627638862.0
Southbridge,42.0751,-72.0334,66.85,95.0,56.0,8.19,US,1627638862.0
Samarai,-10.6167,150.6667,79.52,85.0,60.0,17.34,PG,1627638862.0
São Joaquim,-28.2939,-49.9317,25.72,76.0,2.0,1.52,BR,1627638862.0
Bakel,14.905,-12.4568,83.55,70.0,9.0,10.18,SN,1627638863.0
La Baule-Escoublac,47.2922,-2.364,67.71,67.0,75.0,17.27,FR,1627638863.0
Sawākin,19.1059,37.3321,104.4,39.0,54.0,11.83,SD,1627638863.0
Nirasaki,35.7,138.45,75.81,94.0,39.0,0.2,JP,1627638863.0
Douglas,41.3,-96.167,76.3,76.0,90.0,5.75,US,1627638863.0
Mana,5.6592,-53.7767,75.87,89.0,10.0,1.54,GF,1627638863.0
Pierre,44.3683,-100.351,70.0,73.0,90.0,1.01,US,1627638863.0
Casa Nova,-9.4167,-41.1333,62.58,58.0,33.0,14.18,BR,1627638863.0
Tuatapere,-46.1333,167.6833,48.81,97.0,100.0,2.84,NZ,1627638863.0
Kapit,2.0167,112.9333,87.4,65.0,33.0,2.55,MY,1627638864.0
Mlonggo,-6.5333,110.7,85.89,68.0,15.0,8.03,ID,1627638864.0
Long Beach,33.767,-118.1892,75.18,91.0,36.0,0.0,US,1627638864.0
Saint-Philippe,-21.3585,55.7679,72.99,73.0,82.0,13.27,RE,1627638708.0
Kedrovyy,56.1667,91.8167,70.21,34.0,90.0,1.77,RU,1627638864.0
Amboise,47.4125,0.9827,68.29,74.0,90.0,12.66,FR,1627638864.0
Kuandian,40.7286,124.7847,75.6,88.0,100.0,3.62,CN,1627638864.0
Greensburg,40.3015,-79.5389,70.3,94.0,90.0,3.0,US,1627638864.0
Porto-Novo,6.4965,2.6036,80.42,60.0,83.0,9.73,BJ,1627638864.0
Aksu,41.1231,80.2644,94.62,18.0,96.0,23.13,CN,1627638864.0
Maceió,-9.6658,-35.7353,67.44,100.0,20.0,4.61,BR,1627638783.0
Sarandë,39.8756,20.0053,92.93,28.0,0.0,4.68,AL,1627638865.0
La Palma,33.8464,-118.0467,79.32,89.0,32.0,1.99,US,1627638848.0
Deputatsky,69.3,139.9,58.68,48.0,89.0,4.05,RU,1627638865.0
Kenitra,34.261,-6.5802,81.73,63.0,76.0,6.93,MA,1627638764.0
Ust-Nera,64.5667,143.2,57.49,53.0,39.0,4.23,RU,1627638865.0
Athabasca,54.7169,-113.2854,60.62,66.0,4.0,3.67,CA,1627638865.0
Tautira,-17.7333,-149.15,73.42,78.0,59.0,13.09,PF,1627638865.0
Parrita,9.5201,-84.3225,80.37,83.0,13.0,4.56,CR,1627638865.0
Shetpe,44.1667,52.1167,91.72,14.0,0.0,6.33,KZ,1627638865.0
Vaitape,-16.5167,-151.75,77.52,75.0,100.0,14.92,PF,1627638866.0
Soe,-9.8607,124.284,67.48,75.0,5.0,5.21,ID,1627638866.0
Polis,35.0367,32.4264,99.28,24.0,0.0,8.5,CY,1627638866.0
Bauchi,10.5,10.0,76.19,84.0,99.0,4.09,NG,1627638866.0
Saint-Augustin,51.226,-58.6502,56.7,77.0,100.0,5.97,CA,1627638866.0
Mae Hong Son,19.3003,97.9685,89.74,62.0,40.0,3.44,TH,1627638866.0
Kirovsk,48.6375,38.6428,89.01,40.0,97.0,13.02,UA,1627638866.0
Miramar,25.9873,-80.2323,79.0,94.0,20.0,0.0,US,1627638866.0
Acapulco de Juárez,16.8634,-99.8901,76.44,86.0,100.0,5.66,MX,1627638866.0
Swakopmund,-22.6833,14.5333,85.05,20.0,0.0,24.52,NA,1627638867.0
Okhotsk,59.3833,143.3,54.45,68.0,98.0,7.52,RU,1627638867.0
São Sebastião,-23.76,-45.4097,48.07,78.0,45.0,4.09,BR,1627638867.0
Chabahar,25.2919,60.643,88.16,73.0,82.0,13.73,IR,1627638740.0
Sete Lagoas,-19.4658,-44.2467,49.28,46.0,0.0,5.01,BR,1627638867.0
Konëvo,62.1215,39.3192,70.57,74.0,72.0,6.51,RU,1627638867.0
Alugan,12.2188,125.4808,85.5,69.0,94.0,10.74,PH,1627638867.0
Acaraú,-2.8856,-40.12,77.68,86.0,52.0,10.67,BR,1627638867.0
Copiapó,-27.3667,-70.3333,44.29,27.0,1.0,3.24,CL,1627638867.0
Simao,22.7886,100.9748,77.58,69.0,100.0,3.42,CN,1627638868.0
Kefamenanu,-9.4467,124.4781,71.94,75.0,4.0,3.87,ID,1627638868.0
Koutiala,12.3917,-5.4642,78.58,78.0,98.0,8.57,ML,1627638868.0
Port Moresby,-9.4431,147.1797,78.22,94.0,40.0,4.61,PG,1627638868.0
Gazi,35.3253,25.0669,99.95,70.0,0.0,12.66,GR,1627638868.0
Sehithwa,-20.4667,22.7167,75.97,15.0,0.0,13.44,BW,1627638868.0
Risør,58.7206,9.2342,73.17,58.0,79.0,7.9,NO,1627638868.0
Pitimbu,-7.4706,-34.8086,72.19,80.0,21.0,6.96,BR,1627638868.0
Zarichne,51.8126,26.129,79.97,41.0,0.0,9.46,UA,1627638868.0
Xining,36.6167,101.7667,82.94,20.0,0.0,5.55,CN,1627638868.0
Nemuro,43.3236,145.575,77.43,97.0,20.0,7.47,JP,1627638869.0
Kieta,-6.2167,155.6333,79.56,85.0,93.0,4.88,PG,1627638869.0
Gweta,-20.1833,25.2333,74.73,17.0,22.0,14.52,BW,1627638869.0
Kulhudhuffushi,6.6221,73.07,82.98,72.0,74.0,10.27,MV,1627638869.0
Mae Sot,16.7167,98.5667,82.35,83.0,75.0,9.22,TH,1627638869.0
Flinders,-34.5833,150.8552,56.37,67.0,0.0,1.01,AU,1627638869.0
Richmond,37.5538,-77.4603,76.98,86.0,13.0,5.53,US,1627638869.0
Mapiri,-15.25,-68.1667,55.18,93.0,100.0,0.02,BO,1627638869.0
Vila,42.0304,-8.1588,65.75,65.0,11.0,4.68,PT,1627638869.0
Azul,-36.777,-59.8585,35.83,63.0,0.0,7.63,AR,1627638869.0
Tefé,-3.3542,-64.7114,68.81,75.0,76.0,2.98,BR,1627638870.0
Yeppoon,-23.1333,150.7333,65.98,87.0,0.0,11.32,AU,1627638870.0
