City,Lat,Lng,Max Temp,Humidity,Cloudiness,Wind Speed,Country,Date
Hilo,19.7297,-155.09,72.81,85.0,40.0,4.61,US,1627738546.0
Avarua,-21.2078,-159.775,73.45,73.0,75.0,18.41,CK,1627738546.0
Bredasdorp,-34.5322,20.0403,61.92,72.0,89.0,8.05,ZA,1627738546.0
Rikitea,-23.1203,-134.9692,70.7,70.0,22.0,12.19,PF,1627738546.0
Vao,-22.6667,167.4833,67.41,56.0,0.0,24.67,NC,1627738546.0
Lovozero,68.005,35.0117,58.44,63.0,100.0,10.18,RU,1627738546.0
Ushuaia,-54.8,-68.3,37.06,65.0,40.0,3.44,AR,1627738295.0
Port Elizabeth,-33.918,25.5701,79.09,34.0,0.0,4.61,ZA,1627738546.0
Pisco,-13.7,-76.2167,63.01,77.0,90.0,5.75,PE,1627738546.0
Inhambane,-23.865,35.3833,75.18,57.0,40.0,4.61,MZ,1627738546.0
Kaeo,-35.1,173.7833,56.32,93.0,99.0,13.18,NZ,1627738547.0
Ignatovka,53.9479,47.6536,78.13,61.0,100.0,13.27,RU,1627738547.0
Nome,64.5011,-165.4064,53.67,94.0,90.0,20.71,US,1627738547.0
Port Alfred,-33.5906,26.891,72.07,47.0,82.0,4.56,ZA,1627738547.0
Lebu,-37.6167,-73.65,46.22,75.0,100.0,11.48,CL,1627738547.0
Mataura,-46.1927,168.8643,47.48,99.0,100.0,1.16,NZ,1627738547.0
George Town,5.4112,100.3354,82.89,82.0,20.0,0.0,MY,1627738331.0
Isangel,-19.55,169.2667,69.26,59.0,6.0,15.52,VU,1627738547.0
Bambous Virieux,-20.3428,57.7575,73.65,64.0,40.0,10.36,MU,1627738547.0
Hasaki,35.7333,140.8333,77.4,90.0,100.0,11.88,JP,1627738547.0
Ancud,-41.8697,-73.8203,33.33,75.0,57.0,3.94,CL,1627738547.0
Hermanus,-34.4187,19.2345,68.9,75.0,100.0,2.73,ZA,1627738548.0
Punta Arenas,-53.15,-70.9167,41.11,65.0,0.0,28.77,CL,1627738548.0
Palu,-0.8917,119.8707,76.5,95.0,67.0,2.06,ID,1627738548.0
Airai,-8.9266,125.4092,58.42,94.0,33.0,2.53,TL,1627738548.0
Forsytheganj,52.6333,29.7333,84.47,37.0,100.0,9.44,BY,1627738548.0
Vaini,-21.2,-175.2,73.56,88.0,90.0,12.66,TO,1627738548.0
Kodinsk,58.6881,99.1844,64.33,60.0,100.0,2.19,RU,1627738548.0
Kichera,55.9375,110.0997,55.36,87.0,19.0,1.14,RU,1627738548.0
Neuquén,-38.9516,-68.0591,39.09,87.0,90.0,4.61,AR,1627738473.0
Vila Franca do Campo,37.7167,-25.4333,77.41,74.0,65.0,5.7,PT,1627738410.0
Atuona,-9.8,-139.0333,76.14,75.0,15.0,11.9,PF,1627738549.0
Olavarría,-36.8927,-60.3225,48.45,49.0,68.0,4.29,AR,1627738549.0
Albany,42.6001,-73.9662,64.72,61.0,19.0,1.99,US,1627738549.0
Chegdomyn,51.1167,133.0167,60.06,96.0,100.0,2.48,RU,1627738549.0
Mar del Plata,-38.0023,-57.5575,53.1,70.0,0.0,5.99,AR,1627738549.0
Axum,14.1245,38.7244,60.55,83.0,100.0,4.94,ET,1627738549.0
Bethel,41.3712,-73.414,69.1,69.0,1.0,1.99,US,1627738549.0
Omboué,-1.5746,9.2618,79.45,66.0,31.0,11.23,GA,1627738549.0
Saskylakh,71.9167,114.0833,72.91,40.0,0.0,8.32,RU,1627738549.0
Grand Gaube,-20.0064,57.6608,73.8,66.0,4.0,11.99,MU,1627738549.0
Puerto Ayora,-0.7393,-90.3518,68.56,97.0,98.0,5.01,EC,1627738549.0
Vytegra,61.0064,36.4481,62.58,89.0,85.0,8.3,RU,1627738550.0
Cape Town,-33.9258,18.4232,74.1,48.0,0.0,4.61,ZA,1627738550.0
Hobe Sound,27.0595,-80.1364,88.99,77.0,1.0,4.61,US,1627738550.0
Petauke,-14.2426,31.3253,70.57,44.0,38.0,11.32,ZM,1627738550.0
Chui,-33.6971,-53.4616,52.47,64.0,0.0,6.2,UY,1627738550.0
Kieta,-6.2167,155.6333,78.28,83.0,98.0,5.26,PG,1627738550.0
Kahului,20.8947,-156.47,74.46,85.0,40.0,12.66,US,1627738550.0
Naryan-Mar,67.6713,53.087,63.36,55.0,100.0,9.69,RU,1627738550.0
Port Macquarie,-31.4333,152.9167,51.76,87.0,0.0,0.0,AU,1627738551.0
Provideniya,64.3833,-173.3,45.61,92.0,100.0,10.31,RU,1627738551.0
Chupa,66.27,33.0549,56.37,84.0,100.0,3.22,RU,1627738551.0
Thomastown,52.5267,-7.1372,69.53,77.0,99.0,7.72,IE,1627738551.0
Ponta do Sol,32.6667,-17.1,82.71,66.0,0.0,4.52,PT,1627738551.0
Birnin Kebbi,12.4539,4.1975,90.97,47.0,89.0,9.71,NG,1627738551.0
Hong Kong,22.2855,114.1577,87.33,86.0,100.0,5.01,HK,1627738439.0
Hobart,-42.8794,147.3294,52.27,73.0,75.0,1.99,AU,1627738551.0
Jamestown,42.097,-79.2353,64.02,87.0,0.0,1.99,US,1627738551.0
Saint Paul Harbor,57.79,-152.4072,53.11,87.0,90.0,0.0,US,1627738551.0
Kulu,39.0951,33.0799,88.97,16.0,0.0,14.12,TR,1627738552.0
Bandarbeyla,9.4942,50.8122,81.01,63.0,100.0,28.25,SO,1627738552.0
Buenos Aires,-34.6132,-58.3772,54.01,66.0,0.0,5.75,AR,1627738407.0
Ketchikan,55.3422,-131.6461,55.87,94.0,1.0,0.0,US,1627738552.0
Denpasar,-8.65,115.2167,80.26,89.0,20.0,14.97,ID,1627738327.0
Dubrovka,53.6907,33.5071,82.38,47.0,16.0,9.06,RU,1627738552.0
Çayeli,41.0923,40.7292,77.76,82.0,52.0,4.81,TR,1627738552.0
Harlingen,26.1906,-97.6961,82.94,98.0,20.0,3.44,US,1627738552.0
Khatanga,71.9667,102.5,74.61,34.0,10.0,13.42,RU,1627738553.0
Codrington,-38.2667,141.9667,46.85,89.0,100.0,8.55,AU,1627738553.0
Sur,22.5667,59.5289,98.94,42.0,39.0,15.28,OM,1627738553.0
Talnakh,69.4865,88.3972,61.7,71.0,86.0,14.67,RU,1627738553.0
Bowen,-20.0167,148.2333,68.22,84.0,68.0,8.97,AU,1627738553.0
Kavaratti,10.5669,72.642,82.15,79.0,94.0,17.2,IN,1627738553.0
Kruisfontein,-34.0033,24.7314,72.25,34.0,100.0,4.16,ZA,1627738553.0
Soyo,-6.1349,12.3689,77.05,70.0,1.0,9.8,AO,1627738437.0
Castro,-24.7911,-50.0119,49.28,62.0,100.0,8.88,BR,1627738553.0
Luanda,-8.8368,13.2343,75.2,78.0,0.0,11.5,AO,1627738315.0
Te Anau,-45.4167,167.7167,46.4,98.0,100.0,0.51,NZ,1627738554.0
Mnogovershinnyy,53.9353,139.9242,45.75,97.0,100.0,3.53,RU,1627738554.0
Mount Isa,-20.7333,139.5,62.37,45.0,1.0,4.61,AU,1627738554.0
Barrow,71.2906,-156.7887,42.82,97.0,75.0,11.5,US,1627738554.0
Campoverde,-8.4753,-74.8058,69.49,49.0,26.0,1.99,PE,1627738554.0
Tarauacá,-8.1614,-70.7656,75.63,35.0,25.0,3.74,BR,1627738554.0
Shizukuishi,39.6833,140.9833,72.77,91.0,100.0,4.18,JP,1627738554.0
Broken Hill,-31.95,141.4333,58.71,72.0,99.0,23.02,AU,1627738554.0
Busselton,-33.65,115.3333,54.09,77.0,90.0,27.63,AU,1627738554.0
Honiara,-9.4333,159.95,76.26,89.0,94.0,4.7,SB,1627738554.0
Mahébourg,-20.4081,57.7,73.69,64.0,40.0,10.36,MU,1627738312.0
Torbay,47.6666,-52.7314,70.57,88.0,75.0,16.11,CA,1627738555.0
Mehtar Lām,34.6714,70.2094,88.93,53.0,22.0,8.55,AF,1627738555.0
Nikolskoye,59.7035,30.7861,73.29,43.0,12.0,12.66,RU,1627738555.0
Belaya,49.029,25.7706,84.65,44.0,3.0,9.4,UA,1627738555.0
Kalachinsk,55.0529,74.5751,71.89,60.0,88.0,6.26,RU,1627738555.0
Marsá Maţrūḩ,31.3525,27.2453,88.0,58.0,0.0,18.41,EG,1627738555.0
Avera,33.194,-82.5271,83.71,65.0,44.0,6.06,US,1627738555.0
Chase,50.8165,-119.6857,64.15,43.0,35.0,2.62,CA,1627738555.0
Durrës,41.3231,19.4414,96.98,57.0,0.0,10.92,AL,1627738555.0
La Huerta,19.4667,-104.65,72.48,96.0,100.0,2.8,MX,1627738555.0
College,64.8569,-147.8028,57.79,85.0,40.0,3.44,US,1627738556.0
Tasiilaq,65.6145,-37.6368,55.56,75.0,99.0,1.92,GL,1627738556.0
Alyangula,-13.8483,136.4192,75.07,100.0,90.0,5.75,AU,1627738556.0
Polunochnoye,60.8697,60.4153,68.36,62.0,59.0,8.59,RU,1627738556.0
Upernavik,72.7868,-56.1549,42.31,77.0,100.0,9.95,GL,1627738556.0
East London,-33.0153,27.9116,77.94,31.0,0.0,6.91,ZA,1627738533.0
Akure,7.2526,5.1931,77.95,81.0,98.0,5.84,NG,1627738556.0
Tuatapere,-46.1333,167.6833,47.82,98.0,100.0,0.94,NZ,1627738556.0
Genhe,50.7833,121.5167,52.39,97.0,100.0,6.33,CN,1627738556.0
Lorengau,-2.0226,147.2712,80.65,77.0,99.0,2.39,PG,1627738556.0
Henderson,36.0397,-114.9819,85.68,53.0,1.0,0.0,US,1627738556.0
San Cristobal,7.7669,-72.225,75.38,72.0,64.0,6.06,VE,1627738557.0
Leningradskiy,69.3833,178.4167,31.96,94.0,100.0,8.84,RU,1627738557.0
Port Hardy,50.6996,-127.4199,55.58,100.0,90.0,3.44,CA,1627738557.0
Butaritari,3.0707,172.7902,80.1,77.0,64.0,2.04,KI,1627738557.0
Ust-Nera,64.5667,143.2,54.84,63.0,74.0,3.87,RU,1627738557.0
Qaanaaq,77.484,-69.3632,42.48,84.0,57.0,2.55,GL,1627738557.0
Søvik,65.9333,12.4667,57.72,93.0,75.0,11.99,NO,1627738557.0
Qaqortoq,60.7167,-46.0333,61.3,71.0,98.0,2.17,GL,1627738557.0
Chokurdakh,70.6333,147.9167,37.98,82.0,100.0,18.45,RU,1627738558.0
Roald,62.5833,6.1333,59.09,76.0,75.0,17.27,NO,1627738558.0
São Filipe,14.8961,-24.4956,76.66,84.0,50.0,10.83,CV,1627738558.0
Māndal,25.45,74.5667,79.97,80.0,100.0,14.23,IN,1627738558.0
Ubari,26.5921,12.7805,101.62,8.0,0.0,10.02,LY,1627738558.0
Saint-Philippe,-21.3585,55.7679,73.22,76.0,46.0,16.46,RE,1627738558.0
Dongfeng,42.6403,125.5118,72.36,85.0,4.0,6.38,CN,1627738558.0
Prince Rupert,54.3161,-130.3201,56.89,100.0,90.0,0.0,CA,1627738558.0
Orlik,52.5178,99.825,55.47,97.0,100.0,6.02,RU,1627738558.0
Seoul,37.5683,126.9778,82.0,74.0,0.0,3.44,KR,1627738470.0
Barinas,8.6226,-70.2075,75.24,100.0,83.0,4.61,VE,1627738558.0
Najrān,17.4924,44.1277,99.25,24.0,82.0,18.52,SA,1627738559.0
Pacific Grove,36.6177,-121.9166,61.16,93.0,90.0,4.0,US,1627738559.0
Baykit,61.67,96.37,60.64,72.0,100.0,0.92,RU,1627738387.0
Longyearbyen,78.2186,15.6401,46.24,71.0,75.0,10.36,SJ,1627738559.0
Arlit,18.7369,7.3853,102.51,20.0,8.0,4.99,NE,1627738559.0
Pitanga,-24.7572,-51.7614,52.9,40.0,100.0,7.85,BR,1627738296.0
Karratha,-20.7377,116.8463,68.92,41.0,3.0,12.57,AU,1627738559.0
Rome,43.2128,-75.4557,64.04,72.0,1.0,0.0,US,1627738559.0
Norrtälje,59.758,18.705,71.24,65.0,100.0,8.68,SE,1627738559.0
Ribeira Grande,38.5167,-28.7,75.6,78.0,20.0,6.91,PT,1627738560.0
Bathsheba,13.2167,-59.5167,84.81,79.0,75.0,20.71,BB,1627738560.0
Kapaa,22.0752,-159.319,80.92,71.0,75.0,1.99,US,1627738560.0
Davila,18.4726,120.5763,81.84,86.0,100.0,22.46,PH,1627738496.0
Palembang,-2.9167,104.7458,84.29,70.0,20.0,9.22,ID,1627738561.0
Nouakchott,18.0858,-15.9785,80.53,74.0,27.0,12.86,MR,1627738561.0
Bluff,-46.6,168.3333,47.8,95.0,100.0,3.67,NZ,1627738562.0
Arraial do Cabo,-22.9661,-42.0278,71.56,82.0,75.0,11.5,BR,1627738562.0
Constitución,-35.3333,-72.4167,52.95,71.0,100.0,6.55,CL,1627738562.0
Bonavista,48.6499,-53.1147,68.11,96.0,100.0,21.54,CA,1627738562.0
Praia,14.9215,-23.5087,82.94,65.0,75.0,11.5,CV,1627738280.0
Cherëmukhovo,60.3484,59.9851,67.8,71.0,97.0,6.22,RU,1627738563.0
Pevek,69.7008,170.3133,33.84,83.0,100.0,3.29,RU,1627738382.0
Yellowknife,62.456,-114.3525,68.29,77.0,40.0,8.05,CA,1627738510.0
Kshenskiy,51.8408,37.7136,84.13,36.0,5.0,11.03,RU,1627738563.0
Tiksi,71.6872,128.8694,42.26,80.0,17.0,3.11,RU,1627738563.0
Tuktoyaktuk,69.4541,-133.0374,59.0,82.0,75.0,12.66,CA,1627738563.0
Lüderitz,-26.6481,15.1594,79.18,23.0,0.0,10.87,NA,1627738563.0
Narsaq,60.9167,-46.05,61.02,68.0,100.0,2.59,GL,1627738564.0
Tautira,-17.7333,-149.15,69.82,62.0,100.0,12.97,PF,1627738564.0
Sal Rei,16.1833,-22.9167,82.6,61.0,75.0,10.36,CV,1627738564.0
Opuwo,-18.0607,13.84,80.01,14.0,0.0,16.02,NA,1627738564.0
Antalaha,-14.9003,50.2788,72.79,69.0,0.0,13.42,MG,1627738564.0
Cockburn Town,21.4612,-71.1419,84.16,70.0,40.0,13.8,TC,1627738564.0
Carnarvon,-24.8667,113.6333,59.07,57.0,90.0,5.75,AU,1627738564.0
Bairiki Village,1.3292,172.9752,78.8,89.0,75.0,0.0,KI,1627738564.0
San Quintín,30.4833,-115.95,69.82,83.0,0.0,7.38,MX,1627738565.0
Mossamedes,-15.1961,12.1522,77.63,78.0,75.0,13.8,AO,1627738565.0
Hithadhoo,-0.6,73.0833,81.61,73.0,79.0,4.52,MV,1627738565.0
Province of Groningen,53.25,6.75,68.22,68.0,40.0,5.01,NL,1627738565.0
Chhor,25.5167,69.7667,98.11,43.0,65.0,22.12,PK,1627738565.0
Anloga,5.7947,0.8973,84.42,75.0,19.0,13.62,GH,1627738565.0
Guerrero Negro,27.9769,-114.0611,70.75,81.0,71.0,4.72,MX,1627738565.0
Poum,-20.2333,164.0167,68.85,59.0,3.0,20.13,NC,1627738566.0
São Sebastião do Caí,-29.5867,-51.3756,61.16,40.0,0.0,2.62,BR,1627738566.0
Grindavik,63.8424,-22.4338,55.87,88.0,75.0,12.66,IS,1627738566.0
Odesa,46.4775,30.7326,84.13,45.0,20.0,11.18,UA,1627738458.0
Iqaluit,63.7506,-68.5145,56.93,50.0,90.0,8.01,CA,1627738495.0
Isabela,6.7085,121.9711,79.81,84.0,94.0,2.42,PH,1627738566.0
Ixtapa,20.7,-105.2,75.22,94.0,90.0,6.91,MX,1627738566.0
Agirish,61.9247,63.0231,68.36,44.0,28.0,2.19,RU,1627738566.0
Carutapera,-1.195,-46.02,81.09,85.0,19.0,7.11,BR,1627738566.0
Puerto Escondido,15.85,-97.0667,77.83,83.0,40.0,6.91,MX,1627738567.0
Tibati,6.4667,12.6333,78.69,67.0,100.0,4.7,CM,1627738567.0
New Norfolk,-42.7826,147.0587,51.93,75.0,100.0,3.0,AU,1627738567.0
Portland,45.5234,-122.6762,75.63,61.0,75.0,1.01,US,1627738567.0
Thompson,55.7435,-97.8558,55.56,71.0,20.0,4.61,CA,1627738567.0
Ko Samui,9.5357,99.9357,85.91,74.0,20.0,2.3,TH,1627738567.0
Ahipara,-35.1667,173.1667,54.79,86.0,95.0,7.74,NZ,1627738567.0
Husavik,66.0449,-17.3389,60.71,53.0,1.0,6.29,IS,1627738567.0
Salalah,17.0151,54.0924,78.89,89.0,90.0,11.5,OM,1627738327.0
Huilong,31.8111,121.655,85.03,89.0,100.0,6.8,CN,1627738567.0
Sioux Lookout,50.1001,-91.917,62.67,82.0,1.0,6.91,CA,1627738567.0
Ilulissat,69.2167,-51.1,57.22,41.0,1.0,5.75,GL,1627738568.0
Muros,42.7762,-9.0603,72.09,49.0,62.0,16.44,ES,1627738568.0
Cap Malheureux,-19.9842,57.6142,73.89,66.0,3.0,11.99,MU,1627738568.0
Akdepe,42.0551,59.3788,96.89,9.0,0.0,13.76,TM,1627738568.0
Bubaque,11.2833,-15.8333,79.09,83.0,100.0,18.57,GW,1627738568.0
Machalí,-34.1833,-70.6667,38.48,81.0,8.0,2.3,CL,1627738568.0
Wau,7.7029,27.9953,74.37,91.0,100.0,1.63,SS,1627738568.0
Latur,18.4,76.5833,77.77,69.0,100.0,17.85,IN,1627738568.0
Dulce Grande,23.0,-102.1667,61.43,70.0,98.0,15.03,MX,1627738568.0
Slatina-Timiş,45.25,22.2833,92.08,29.0,96.0,4.85,RO,1627738568.0
Kirovskiy,45.0917,133.5136,74.21,77.0,76.0,8.99,RU,1627738569.0
Mazagão,-0.115,-51.2894,80.65,77.0,52.0,1.9,BR,1627738569.0
Yulara,-25.2406,130.9889,69.64,37.0,75.0,11.5,AU,1627738569.0
Kulhudhuffushi,6.6221,73.07,82.47,77.0,70.0,12.39,MV,1627738569.0
Harper,4.375,-7.7169,78.44,80.0,98.0,12.5,LR,1627738569.0
Noumea,-22.2763,166.4572,70.0,99.0,17.0,14.97,NC,1627738368.0
Dryden,49.7833,-92.7503,59.29,94.0,1.0,5.75,CA,1627738569.0
Cidreira,-30.1811,-50.2056,58.08,64.0,0.0,14.63,BR,1627738569.0
Ciechocinek,52.8791,18.7951,84.47,34.0,51.0,14.9,PL,1627738569.0
Buraidah,26.326,43.975,108.05,6.0,42.0,3.2,SA,1627738569.0
Halifax,44.6453,-63.5724,66.09,76.0,13.0,1.01,CA,1627738569.0
Bukachacha,52.9833,116.9167,51.87,79.0,3.0,4.81,RU,1627738569.0
Saint George,37.1041,-113.5841,78.39,64.0,1.0,1.01,US,1627738570.0
Örnsköldsvik,63.2909,18.7153,68.95,68.0,40.0,8.05,SE,1627738280.0
Dikson,73.5069,80.5464,47.21,95.0,100.0,14.47,RU,1627738570.0
Shangzhi,45.2167,127.9667,72.64,96.0,17.0,2.62,CN,1627738356.0
Westport,41.1415,-73.3579,71.15,68.0,1.0,1.01,US,1627738570.0
Balingen,48.2752,8.8546,75.34,48.0,73.0,5.01,DE,1627738570.0
Conakry,9.538,-13.6773,77.07,88.0,75.0,4.61,GN,1627738570.0
Fortuna,40.5982,-124.1573,53.92,95.0,90.0,0.0,US,1627738570.0
Padang,-0.9492,100.3543,78.85,87.0,100.0,3.29,ID,1627738500.0
Vardø,70.3705,31.1107,48.4,91.0,100.0,16.96,NO,1627738570.0
Malaya Vishera,58.8454,32.2222,76.01,36.0,27.0,12.08,RU,1627738570.0
Beloha,-25.1667,45.05,73.92,55.0,0.0,13.04,MG,1627738571.0
Jiangyou,31.7667,104.7167,80.47,85.0,2.0,3.94,CN,1627738571.0
Shimoda,34.6667,138.95,77.11,84.0,6.0,2.53,JP,1627738571.0
Wittenberge,53.0,11.75,72.03,65.0,52.0,7.0,DE,1627738480.0
Coquimbo,-29.9533,-71.3436,44.33,100.0,90.0,5.75,CL,1627738571.0
Morondava,-20.2833,44.2833,81.43,49.0,0.0,15.19,MG,1627738571.0
Moerai,-22.4333,-151.3333,70.38,71.0,53.0,9.24,PF,1627738571.0
Kirovsk,48.6375,38.6428,81.66,51.0,99.0,6.31,UA,1627738571.0
Flic en Flac,-20.2742,57.3631,73.96,63.0,2.0,17.58,MU,1627738572.0
Krasnosel'kup,65.7,82.4667,58.33,67.0,100.0,11.88,RU,1627738572.0
Souillac,-20.5167,57.5167,73.78,64.0,40.0,10.36,MU,1627738572.0
Kewanee,41.2456,-89.9248,67.32,84.0,100.0,4.97,US,1627738572.0
Atambua,-9.1061,124.8925,71.82,88.0,19.0,4.79,ID,1627738572.0
Victor Harbor,-35.5667,138.6167,53.19,79.0,100.0,5.97,AU,1627738572.0
Hualmay,-11.0964,-77.6139,64.17,80.0,65.0,8.97,PE,1627738572.0
Kavieng,-2.5744,150.7967,81.5,77.0,7.0,7.56,PG,1627738572.0
Dongsheng,39.8161,109.9776,71.02,40.0,89.0,18.81,CN,1627738572.0
Tura,25.5198,90.2201,74.62,97.0,100.0,4.56,IN,1627738572.0
Neiafu,-18.65,-173.9833,74.08,94.0,90.0,11.5,TO,1627738572.0
Hofn,64.2539,-15.2082,48.22,87.0,90.0,6.91,IS,1627738573.0
Flinders,-34.5833,150.8552,62.06,95.0,38.0,1.01,AU,1627738573.0
Māngrol,21.1167,70.1167,82.0,83.0,100.0,22.12,IN,1627738573.0
Tiarei,-17.5333,-149.3333,69.82,61.0,92.0,14.45,PF,1627738573.0
Raudeberg,61.9875,5.1352,59.67,76.0,30.0,25.75,NO,1627738573.0
Bhavāni,11.45,77.6833,88.34,48.0,96.0,8.77,IN,1627738573.0
Eyl,7.9803,49.8164,83.84,57.0,100.0,24.7,SO,1627738573.0
Khāsh,28.2211,61.2158,92.39,12.0,40.0,14.79,IR,1627738506.0
Bengkulu,-3.8004,102.2655,77.85,87.0,65.0,6.71,ID,1627738573.0
Ostrovnoy,68.0531,39.5131,48.58,92.0,100.0,9.93,RU,1627738574.0
Talakan,50.3167,130.3667,66.99,97.0,100.0,8.5,RU,1627738574.0
Esperance,-33.8667,121.9,48.04,66.0,7.0,20.94,AU,1627738574.0
Dingle,10.9995,122.6711,79.32,86.0,79.0,8.32,PH,1627738574.0
Diamantino,-14.4086,-56.4461,82.81,19.0,17.0,4.7,BR,1627738574.0
Batagay-Alyta,67.8006,130.4114,62.42,68.0,81.0,3.71,RU,1627738574.0
Nanortalik,60.1432,-45.2371,47.32,80.0,79.0,8.46,GL,1627738574.0
Zhigansk,66.7697,123.3711,65.62,41.0,20.0,6.33,RU,1627738574.0
Sakaiminato,35.55,133.2333,80.58,83.0,40.0,9.22,JP,1627738574.0
Crestview,30.7621,-86.5705,87.08,76.0,1.0,1.99,US,1627738574.0
Port Keats,-14.25,129.55,75.11,88.0,56.0,3.71,AU,1627738575.0
Aklavik,68.2191,-135.0107,59.83,88.0,75.0,4.61,CA,1627738575.0
Geraldton,-28.7667,114.6,59.41,58.0,75.0,13.8,AU,1627738575.0
Marawi,7.9986,124.2928,73.65,94.0,99.0,1.63,PH,1627738575.0
Nizhnevartovsk,60.9344,76.5531,59.02,77.0,75.0,4.47,RU,1627738383.0
Paita,-5.0892,-81.1144,66.76,76.0,6.0,11.56,PE,1627738575.0
Adrar,20.5022,-10.0711,106.75,17.0,54.0,8.39,MR,1627738575.0
Ternate,0.8,127.4,81.52,80.0,8.0,3.6,ID,1627738575.0
Itarema,-2.9248,-39.9167,88.39,44.0,59.0,13.4,BR,1627738575.0
Laas,46.6166,10.7002,80.51,70.0,58.0,5.37,IT,1627738575.0
Along,28.1667,94.7667,75.76,98.0,63.0,0.83,IN,1627738575.0
Galesong,-5.3166,119.3661,77.02,80.0,26.0,11.14,ID,1627738576.0
Timbiquí,2.7717,-77.6654,78.66,87.0,90.0,4.12,CO,1627738576.0
Cherskiy,68.75,161.3,42.37,89.0,100.0,17.27,RU,1627738389.0
São Miguel do Araguaia,-13.275,-50.1628,90.86,20.0,31.0,8.9,BR,1627738576.0
Port-Gentil,-0.7193,8.7815,82.36,65.0,40.0,14.97,GA,1627738576.0
San Patricio,28.017,-97.5169,86.88,68.0,23.0,7.85,US,1627738576.0
Córdoba,-31.4135,-64.1811,61.43,31.0,0.0,5.01,AR,1627738576.0
Port Lincoln,-34.7333,135.8667,51.48,73.0,96.0,7.67,AU,1627738576.0
Ampanihy,-24.7,44.75,78.75,29.0,0.0,10.4,MG,1627738449.0
Vanavara,60.34,102.2797,64.35,82.0,100.0,5.77,RU,1627738532.0
Datong,40.0936,113.2914,71.31,49.0,0.0,15.73,CN,1627738576.0
Amboise,47.4125,0.9827,71.89,59.0,90.0,9.22,FR,1627738577.0
Rong Kwang,18.339,100.3174,77.11,94.0,91.0,2.75,TH,1627738577.0
Champerico,14.3,-91.9167,87.35,80.0,1.0,6.08,GT,1627738577.0
Tiznit Province,29.5833,-9.5,97.63,21.0,21.0,11.16,MA,1627738577.0
Nemuro,43.3236,145.575,66.22,99.0,100.0,14.18,JP,1627738577.0
Nova Viçosa,-17.8919,-39.3719,71.4,60.0,100.0,15.77,BR,1627738577.0
Lokoja,7.8024,6.743,83.03,73.0,86.0,6.64,NG,1627738577.0
Ammon,43.4696,-111.9666,64.9,90.0,90.0,1.01,US,1627738577.0
Jacareacanga,-6.2222,-57.7528,87.35,28.0,41.0,3.67,BR,1627738577.0
Glenluce,54.8798,-4.8084,60.3,74.0,50.0,18.7,GB,1627738578.0
Grand-Santi,4.25,-54.3833,84.81,65.0,86.0,3.6,GF,1627738578.0
Kenora,49.8167,-94.4337,63.79,90.0,75.0,4.61,CA,1627738578.0
Fare,-16.7,-151.0167,76.03,72.0,73.0,19.08,PF,1627738578.0
Ashtian,34.5217,50.0019,82.33,22.0,99.0,17.52,IR,1627738578.0
Terrace,54.5163,-128.6035,62.51,88.0,20.0,2.3,CA,1627738578.0
Corinth,37.9407,22.9573,107.02,35.0,0.0,3.91,GR,1627738441.0
Lincoln,40.8,-96.667,70.18,96.0,75.0,1.01,US,1627738420.0
Şabyā,17.1495,42.6254,92.82,57.0,98.0,11.01,SA,1627738579.0
Yar-Sale,66.8333,70.8333,56.41,69.0,67.0,8.9,RU,1627738579.0
Appleton,44.2619,-88.4154,68.32,90.0,90.0,1.99,US,1627738579.0
Zdolbuniv,50.5206,26.2425,86.92,40.0,40.0,6.71,UA,1627738579.0
Vila do Maio,15.1333,-23.2167,83.19,78.0,64.0,10.0,CV,1627738579.0
Santa Cruz de Barahona,18.2085,-71.1008,85.26,64.0,1.0,7.58,DO,1627738579.0
Ozinki,51.1786,49.6769,88.72,33.0,84.0,9.44,RU,1627738579.0
Ayorou,14.7308,0.9174,94.93,39.0,23.0,9.89,NE,1627738579.0
Arman',59.7,150.1667,49.33,77.0,96.0,2.55,RU,1627738579.0
Latung,5.5,120.8833,84.49,77.0,33.0,8.97,PH,1627738579.0
Zliten,32.4674,14.5687,93.38,36.0,0.0,13.27,LY,1627738579.0
Oranjemund,-28.55,16.4333,82.45,17.0,0.0,11.5,NA,1627738579.0
Klaksvík,62.2266,-6.589,52.72,74.0,99.0,15.99,FO,1627738580.0
Beihai,21.4833,109.1,85.66,83.0,100.0,12.75,CN,1627738580.0
Saint-Gilles,43.6766,4.4302,87.94,32.0,0.0,11.5,FR,1627738436.0
Amuntai,-2.4177,115.2494,74.43,93.0,38.0,0.98,ID,1627738580.0
Arroyo de la Encomienda,41.6096,-4.7969,68.04,52.0,40.0,13.8,ES,1627738580.0
Yaan,7.3833,8.5667,83.98,56.0,100.0,9.06,NG,1627738580.0
Taksimo,56.3444,114.8794,61.88,57.0,85.0,4.7,RU,1627738580.0
Fort Nelson,58.8053,-122.7002,53.19,94.0,1.0,2.3,CA,1627738580.0
Pangody,65.85,74.4859,58.75,57.0,85.0,10.71,RU,1627738580.0
Marfino,55.7028,37.3822,79.99,40.0,0.0,22.37,RU,1627738580.0
Havøysund,70.9963,24.6622,47.28,94.0,100.0,10.04,NO,1627738581.0
Kysyl-Syr,63.8986,122.7617,64.53,47.0,12.0,5.79,RU,1627738581.0
Kaitangata,-46.2817,169.8464,47.62,96.0,100.0,2.8,NZ,1627738581.0
Santa Rosa,14.3122,121.1114,83.1,82.0,100.0,12.46,PH,1627738581.0
Pottsville,40.6857,-76.1955,68.45,76.0,87.0,3.4,US,1627738581.0
North Bend,43.4065,-124.2243,60.93,97.0,90.0,4.61,US,1627738581.0
Abong Mbang,3.9833,13.1833,83.26,56.0,67.0,3.42,CM,1627738581.0
Severo-Kuril'sk,50.6789,156.125,53.2,96.0,100.0,3.47,RU,1627738581.0
Sinnamary,5.3833,-52.95,84.54,68.0,83.0,5.14,GF,1627738582.0
Zhangjiakou Shi Xuanhua Qu,40.6103,115.0447,73.36,55.0,0.0,9.66,CN,1627738582.0
Bara,10.3744,10.7288,85.89,60.0,81.0,8.93,NG,1627738582.0
Samaná,19.2056,-69.3369,82.08,80.0,89.0,10.07,DO,1627738369.0
Alice Springs,-23.7,133.8833,71.15,24.0,0.0,11.5,AU,1627738582.0
Saldanha,-33.0117,17.9442,75.25,51.0,9.0,3.62,ZA,1627738582.0
Mvuma,-19.2792,30.5283,67.6,33.0,0.0,12.01,ZW,1627738582.0
Puerto Padre,21.195,-76.6028,85.21,68.0,1.0,10.02,CU,1627738582.0
Barbalha,-7.3111,-39.3042,84.67,38.0,42.0,13.44,BR,1627738582.0
Umluj,25.0213,37.2685,91.06,45.0,15.0,7.34,SA,1627738582.0
Ati,13.2154,18.3353,85.41,58.0,100.0,8.57,TD,1627738582.0
Camacha,33.0833,-16.3333,74.16,64.0,40.0,17.27,PT,1627738583.0
Los Llanos de Aridane,28.6585,-17.9182,74.12,80.0,75.0,19.57,ES,1627738583.0
Duayaw-Nkwanta,7.1724,-2.1028,83.07,61.0,99.0,4.83,GH,1627738583.0
Vostok,46.4856,135.8833,65.89,91.0,30.0,4.99,RU,1627738583.0
Dunedin,-45.8742,170.5036,50.81,82.0,100.0,8.01,NZ,1627738295.0
Lianhe,47.1333,129.2667,72.01,99.0,95.0,2.39,CN,1627738583.0
Algeciras,36.1333,-5.4505,83.86,41.0,0.0,17.27,ES,1627738583.0
Rocha,-34.4833,-54.3333,53.53,63.0,0.0,6.8,UY,1627738583.0
Diego de Almagro,-26.3667,-70.05,67.33,22.0,0.0,0.98,CL,1627738584.0
Nantucket,41.2835,-70.0995,69.91,56.0,1.0,8.05,US,1627738584.0
Bosconia,9.9689,-73.8836,85.03,61.0,5.0,5.48,CO,1627738584.0
Lata,40.1629,-8.3327,76.05,42.0,100.0,15.75,PT,1627738584.0
Rancho Palos Verdes,33.7445,-118.387,72.28,93.0,2.0,1.01,US,1627738584.0
Olafsvik,64.8945,-23.7142,56.05,87.0,81.0,5.59,IS,1627738584.0
Kiama,-34.6833,150.8667,62.26,76.0,35.0,9.06,AU,1627738584.0
Bulawayo,-20.15,28.5833,67.69,30.0,1.0,12.66,ZW,1627738416.0
Saint-Joseph,-21.3667,55.6167,72.21,73.0,24.0,16.91,RE,1627738584.0
Taoudenni,22.6783,-3.9836,113.2,9.0,4.0,6.26,ML,1627738584.0
Tete,-16.1564,33.5867,77.09,53.0,75.0,6.91,MZ,1627738584.0
Namatanai,-3.6667,152.4333,79.0,82.0,5.0,6.2,PG,1627738584.0
Rawson,-43.3002,-65.1023,44.83,47.0,0.0,5.44,AR,1627738585.0
Vitim,59.4511,112.5578,61.23,50.0,79.0,4.9,RU,1627738585.0
Betafo,-19.8333,46.85,63.57,44.0,40.0,8.25,MG,1627738585.0
Kudahuvadhoo,2.6708,72.8944,83.41,70.0,85.0,4.16,MV,1627738585.0
Belaya Gora,68.5333,146.4167,47.44,72.0,100.0,19.69,RU,1627738339.0
Cabedelo,-6.9811,-34.8339,83.07,70.0,5.0,18.84,BR,1627738585.0
Adjumani,3.3779,31.7909,82.02,55.0,100.0,1.97,UG,1627738585.0
Petropavlovka,50.6114,105.3196,61.7,83.0,100.0,0.89,RU,1627738585.0
Ust-Maya,60.4167,134.5333,54.55,66.0,0.0,2.91,RU,1627738586.0
San Borja,-14.8167,-66.85,71.01,37.0,79.0,2.66,BO,1627738586.0
Leeton,-34.5667,146.4,55.45,67.0,59.0,1.14,AU,1627738586.0
Sachīn,21.0833,72.8833,82.29,78.0,75.0,16.11,IN,1627738586.0
Roebourne,-20.7833,117.1333,69.26,41.0,3.0,11.45,AU,1627738586.0
Dubbo,-32.25,148.6167,60.93,72.0,0.0,8.05,AU,1627738586.0
Chernyshevskiy,63.0128,112.4714,60.53,51.0,0.0,2.82,RU,1627738586.0
Pringsewu,-5.3582,104.9744,73.98,96.0,22.0,3.53,ID,1627738586.0
Srednekolymsk,67.45,153.6833,45.1,74.0,47.0,10.07,RU,1627738586.0
Lavrentiya,65.5833,-171.0,42.37,93.0,100.0,10.6,RU,1627738587.0
Kargil,34.5667,76.1,66.83,42.0,95.0,5.5,IN,1627738362.0
Yamada,39.4667,141.95,73.11,96.0,100.0,7.29,JP,1627738587.0
Diffa,13.3154,12.6113,91.06,44.0,100.0,9.48,NE,1627738587.0
Sault Ste. Marie,46.5168,-84.3333,57.88,93.0,90.0,4.61,CA,1627738587.0
Nuuk,64.1835,-51.7216,56.01,62.0,20.0,19.57,GL,1627738587.0
Nacala,-14.5428,40.6728,83.52,57.0,75.0,19.57,MZ,1627738587.0
Baniachang,24.5167,91.3667,78.85,95.0,100.0,4.94,BD,1627738587.0
Jiazi,22.8779,116.067,83.66,84.0,100.0,15.17,CN,1627738587.0
Bonfim,3.0833,-59.95,81.86,70.0,45.0,3.71,BR,1627738588.0
Plettenberg Bay,-34.0527,23.3716,67.87,45.0,53.0,2.59,ZA,1627738588.0
Hambantota,6.1241,81.1185,86.34,70.0,20.0,12.66,LK,1627738588.0
Cam Ranh,11.9214,109.1591,84.16,79.0,20.0,19.57,VN,1627738588.0
Kovernino,57.1253,43.8142,76.64,41.0,55.0,9.89,RU,1627738588.0
Burayevo,55.8407,55.4083,79.45,56.0,95.0,2.91,RU,1627738588.0
Dolgoye,52.8,37.2167,81.34,42.0,45.0,9.66,RU,1627738588.0
Velyka Bahachka,49.7912,33.7226,90.16,29.0,33.0,5.95,UA,1627738588.0
Port Hedland,-20.3167,118.5667,66.25,77.0,5.0,8.05,AU,1627738588.0
Sokol,59.4617,40.1206,68.41,59.0,51.0,13.85,RU,1627738588.0
Fuling,29.7022,107.3919,77.11,90.0,100.0,4.03,CN,1627738589.0
Berlevåg,70.8578,29.0864,49.48,87.0,100.0,11.77,NO,1627738589.0
Oodweyne,9.4092,45.064,79.88,39.0,61.0,25.43,SO,1627738589.0
Aborlan,9.4352,118.5492,80.29,85.0,83.0,2.48,PH,1627738589.0
Kadirli,37.3739,36.0961,85.01,28.0,0.0,13.89,TR,1627738589.0
Faanui,-16.4833,-151.75,76.64,73.0,91.0,19.48,PF,1627738589.0
Moyale,3.5167,39.0584,77.74,38.0,93.0,17.52,KE,1627738589.0
Chabahar,25.2919,60.643,84.4,80.0,3.0,10.54,IR,1627738589.0
Coachella,33.6803,-116.1739,89.55,48.0,100.0,1.72,US,1627738589.0
Marabba,12.35,32.1833,78.76,69.0,100.0,15.99,SD,1627738590.0
Kurchum,48.5722,83.6542,72.41,34.0,0.0,8.68,KZ,1627738590.0
Kolda,12.8833,-14.95,83.53,76.0,100.0,5.19,SN,1627738590.0
Mercedes,-34.6515,-59.4307,50.86,59.0,95.0,8.39,AR,1627738590.0
Zhezkazgan,47.8043,67.7144,88.61,15.0,0.0,5.93,KZ,1627738590.0
Pavlikeni,43.2428,25.3219,97.83,32.0,30.0,22.08,BG,1627738590.0
La Ronge,55.1001,-105.2842,61.05,77.0,40.0,3.44,CA,1627738590.0
Kanye,-24.9667,25.3327,65.62,23.0,0.0,7.7,BW,1627738591.0
Itarantim,-15.6597,-40.0656,68.79,69.0,100.0,11.68,BR,1627738591.0
Wewak,-3.5534,143.6268,77.77,89.0,100.0,6.46,PG,1627738591.0
Matara,5.9485,80.5353,79.72,83.0,92.0,11.45,LK,1627738591.0
Sørland,67.667,12.6934,49.73,76.0,78.0,15.05,NO,1627738591.0
La Primavera,5.4906,-70.4092,78.13,78.0,19.0,8.28,CO,1627738591.0
Touros,-5.1989,-35.4608,81.5,58.0,97.0,18.32,BR,1627738591.0
Okha,53.5739,142.9478,53.82,70.0,100.0,8.19,RU,1627738591.0
Katsuura,35.1333,140.3,82.11,87.0,26.0,6.08,JP,1627738591.0
Kiryat Gat,31.61,34.7642,96.4,31.0,0.0,12.41,IL,1627738591.0
Lima,-12.0432,-77.0282,59.9,87.0,90.0,2.3,PE,1627738544.0
Tual,-5.6667,132.75,81.39,80.0,44.0,15.93,ID,1627738592.0
Zharkent,44.1628,80.0,72.0,37.0,12.0,8.5,KZ,1627738592.0
Paka,4.6374,103.4368,82.33,89.0,38.0,0.0,MY,1627738592.0
San Luis,-33.295,-66.3356,54.5,28.0,0.0,3.56,AR,1627738592.0
Barkhan,29.8977,69.5256,82.92,55.0,38.0,6.93,PK,1627738592.0
Asău,46.4333,26.4,92.39,46.0,31.0,3.71,RO,1627738592.0
Griffith,41.5284,-87.4237,71.04,66.0,1.0,1.99,US,1627738592.0
Odienné,9.51,-7.5692,80.85,75.0,59.0,6.29,CI,1627738592.0
Rio Grande,-32.035,-52.0986,51.94,78.0,9.0,10.83,BR,1627738512.0
Cascais,38.6979,-9.4215,75.06,51.0,20.0,11.99,PT,1627738486.0
Lagos,6.5833,3.75,88.12,61.0,41.0,10.04,NG,1627738592.0
Sapouy,11.5544,-1.7736,75.38,80.0,100.0,3.0,BF,1627738593.0
Alto Araguaia,-17.3147,-53.2153,80.62,18.0,18.0,7.2,BR,1627738593.0
Beringovskiy,63.05,179.3167,43.25,84.0,100.0,15.26,RU,1627738593.0
Port Blair,11.6667,92.75,81.72,83.0,100.0,17.34,IN,1627738593.0
Pyaozerskiy,65.8333,31.1667,56.71,83.0,100.0,5.79,RU,1627738593.0
Sittwe,20.15,92.9,81.7,87.0,100.0,11.3,MM,1627738593.0
Awjilah,29.1081,21.2869,107.47,9.0,0.0,14.92,LY,1627738593.0
Havre-St-Pierre,50.2334,-63.5986,55.76,100.0,90.0,5.75,CA,1627738593.0
Necochea,-38.5473,-58.7368,51.04,65.0,92.0,3.51,AR,1627738593.0
Lilongwe,-13.9669,33.7873,71.17,43.0,98.0,9.51,MW,1627738593.0
Royan,45.6285,-1.0281,69.84,65.0,96.0,13.04,FR,1627738593.0
Aketi,2.7388,23.7833,74.66,87.0,100.0,5.28,CD,1627738594.0
Kerman,30.2832,57.0788,91.26,16.0,75.0,11.5,IR,1627738505.0
Tahe,52.3333,124.7333,51.04,99.0,100.0,5.17,CN,1627738594.0
Susono,35.2184,138.8817,76.59,93.0,45.0,1.52,JP,1627738594.0
Norman Wells,65.282,-126.8329,53.64,87.0,40.0,3.44,CA,1627738594.0
Newport,51.5877,-2.9984,70.68,70.0,85.0,12.82,GB,1627738397.0
Yangi Marg`ilon,40.4272,71.7189,93.92,16.0,22.0,6.91,UZ,1627738594.0
Altay,47.8667,88.1167,66.58,40.0,94.0,3.96,CN,1627738594.0
Kuching,1.55,110.3333,84.42,84.0,20.0,0.0,MY,1627738594.0
Comodoro Rivadavia,-45.8667,-67.5,35.46,55.0,0.0,2.3,AR,1627738594.0
Chancay,-11.5714,-77.2672,61.32,82.0,75.0,7.05,PE,1627738595.0
Sīta Road,27.0333,67.85,110.12,23.0,100.0,14.32,PK,1627738595.0
Price,39.5994,-110.8107,63.66,82.0,1.0,6.91,US,1627738595.0
Buchanan,5.8808,-10.0467,75.16,77.0,57.0,11.77,LR,1627738595.0
Santiago del Estero,-27.7951,-64.2615,59.81,22.0,7.0,8.48,AR,1627738595.0
Imbituba,-28.24,-48.6703,57.81,62.0,25.0,6.33,BR,1627738595.0
Lompoc,34.6391,-120.4579,60.48,96.0,90.0,3.44,US,1627738595.0
Mehamn,71.0357,27.8492,51.12,79.0,100.0,10.33,NO,1627738595.0
Key West,24.5557,-81.7826,90.0,60.0,1.0,10.36,US,1627738595.0
Suileng,47.25,127.0833,70.52,97.0,4.0,10.87,CN,1627738595.0
Sibolga,1.7427,98.7792,76.35,92.0,96.0,2.66,ID,1627738596.0
Samarai,-10.6167,150.6667,79.0,68.0,100.0,17.16,PG,1627738596.0
Flagstaff,35.1981,-111.6513,62.78,85.0,100.0,8.01,US,1627738596.0
Anastácio,-20.4836,-55.8069,72.25,14.0,99.0,5.28,BR,1627738596.0
Mēga,4.05,38.3,68.72,42.0,95.0,20.89,ET,1627738596.0
Bariadi,-2.8,33.9833,82.0,23.0,11.0,13.09,TZ,1627738596.0
Pangkalanbuun,-2.6833,111.6167,76.5,85.0,57.0,3.38,ID,1627738596.0
Atikokan,48.7555,-91.6216,67.77,64.0,58.0,8.46,CA,1627738596.0
Matinha,-3.1006,-45.0336,81.66,76.0,7.0,5.37,BR,1627738596.0
Fort Morgan,40.2503,-103.8,67.8,88.0,90.0,5.75,US,1627738597.0
Ust'-Koksa,50.2696,85.6108,61.03,66.0,83.0,2.06,RU,1627738597.0
Kharp,66.8014,65.8081,54.37,66.0,3.0,8.66,RU,1627738597.0
Tomatlán,19.9333,-105.25,74.16,97.0,100.0,3.6,MX,1627738597.0
Whitehorse,60.7161,-135.0538,52.57,81.0,20.0,4.0,CA,1627738525.0
Ouadda,8.0777,22.4007,73.04,94.0,100.0,5.3,CF,1627738597.0
Guánica,17.9716,-66.908,86.25,74.0,57.0,7.0,PR,1627738597.0
Turka,49.1541,23.0297,73.26,58.0,46.0,14.72,UA,1627738597.0
Stokmarknes,68.5646,14.9108,51.39,64.0,92.0,6.04,NO,1627738597.0
Nizwá,22.9333,57.5333,100.26,29.0,61.0,2.57,OM,1627738597.0
Canguçu,-31.395,-52.6756,50.25,59.0,0.0,4.54,BR,1627738597.0
Margate,51.3813,1.3862,71.85,59.0,79.0,8.99,GB,1627738497.0
Ranfurly,-45.1333,170.1,43.65,91.0,100.0,3.33,NZ,1627738598.0
Acapulco de Juárez,16.8634,-99.8901,80.42,89.0,75.0,5.75,MX,1627738598.0
Mareeba,-17.0,145.4333,66.92,95.0,100.0,2.71,AU,1627738598.0
Mahajanga,-15.7167,46.3167,91.42,29.0,20.0,12.66,MG,1627738598.0
Gönen,40.1049,27.654,104.02,8.0,1.0,1.99,TR,1627738598.0
Aswān,24.0934,32.907,106.81,9.0,23.0,11.63,EG,1627738598.0
Tonj,7.2737,28.6822,73.44,90.0,100.0,3.22,SS,1627738598.0
Syracuse,37.0881,15.2792,103.44,56.0,0.0,12.33,IT,1627738598.0
Manatí,18.4275,-66.4921,87.62,82.0,85.0,11.54,PR,1627738599.0
Talcahuano,-36.7167,-73.1167,42.48,87.0,0.0,8.05,CL,1627738599.0
Maceió,-9.6658,-35.7353,81.84,65.0,40.0,17.27,BR,1627738599.0
Buala,-8.145,159.5921,78.37,86.0,100.0,8.39,SB,1627738599.0
Maniitsoq,65.4167,-52.9,44.82,86.0,10.0,14.67,GL,1627738599.0
Port Shepstone,-30.7414,30.455,69.42,61.0,0.0,12.84,ZA,1627738599.0
Port Montt,-41.4698,-72.9447,31.03,100.0,55.0,0.0,CL,1627738599.0
Ouango,4.3133,22.5552,91.33,44.0,72.0,2.42,CF,1627738599.0
Aksu,41.1231,80.2644,82.27,28.0,0.0,20.89,CN,1627738599.0
Ilo,-17.6394,-71.3375,58.06,88.0,90.0,5.75,PE,1627738599.0
Moose Factory,51.2585,-80.6094,62.6,63.0,1.0,5.75,CA,1627738600.0
Usakos,-22.0,15.6,81.52,11.0,0.0,19.08,NA,1627738600.0
Charagua,-19.8,-63.2167,63.16,22.0,99.0,5.08,BO,1627738600.0
Sola,-13.8833,167.55,78.04,69.0,100.0,14.94,VU,1627738600.0
Fairbanks,64.8378,-147.7164,57.81,86.0,1.0,5.75,US,1627738600.0
Ballina,-28.8667,153.5667,60.98,77.0,0.0,5.75,AU,1627738600.0
Hamilton,39.1834,-84.5333,73.36,77.0,1.0,1.99,US,1627738600.0
Zaragoza,41.6561,-0.8773,82.54,38.0,20.0,14.0,ES,1627738575.0
Bereda,43.2686,-7.5406,66.58,59.0,62.0,5.82,ES,1627738601.0
Ejura,7.3856,-1.3562,83.3,60.0,100.0,6.24,GH,1627738601.0
Yumen,40.2833,97.2,85.59,17.0,72.0,28.95,CN,1627738601.0
Mahibadhoo,3.7833,72.9667,83.43,72.0,91.0,6.73,MV,1627738601.0
Hervey Bay,-25.2986,152.8535,64.02,86.0,0.0,1.01,AU,1627738601.0
Neresnytsya,48.1181,23.7659,88.57,36.0,17.0,6.58,UA,1627738601.0
Cap-aux-Meules,47.3821,-61.8597,62.65,88.0,90.0,20.71,CA,1627738601.0
Whitehaven,54.549,-3.5841,59.83,86.0,79.0,14.58,GB,1627738601.0
Tupiza,-21.45,-65.7167,55.69,26.0,1.0,19.04,BO,1627738601.0
Binga,-17.6203,27.3414,75.0,35.0,6.0,9.37,ZW,1627738601.0
Chimoio,-19.1164,33.4833,69.66,64.0,40.0,12.66,MZ,1627738601.0
Riyadh,24.6877,46.7219,111.34,8.0,4.0,8.37,SA,1627738400.0
Malchin,53.7333,12.7833,68.7,60.0,63.0,21.14,DE,1627738602.0
Rundu,-17.9333,19.7667,78.71,13.0,23.0,12.08,NA,1627738602.0
São João da Barra,-21.6403,-41.0511,68.09,64.0,69.0,13.02,BR,1627738602.0
Antofagasta,-23.65,-70.4,65.21,68.0,26.0,7.0,CL,1627738602.0
Acajutla,13.5928,-89.8275,80.94,63.0,8.0,4.38,SV,1627738602.0
Saint Anthony,45.0205,-93.218,67.84,84.0,1.0,8.05,US,1627738602.0
Peniche,39.3558,-9.3811,74.68,70.0,100.0,19.06,PT,1627738602.0
Pāvilosta,56.8879,21.1859,73.31,66.0,34.0,13.69,LV,1627738602.0
Langxiang,46.95,128.8833,70.7,99.0,93.0,2.73,CN,1627738602.0
Mugur-Aksy,50.35,90.5,48.07,86.0,100.0,2.24,RU,1627738602.0
Sobinka,55.9855,40.0111,79.88,35.0,7.0,12.73,RU,1627738603.0
Tam Ky,15.5667,108.4833,89.58,76.0,100.0,3.78,VN,1627738603.0
